     3.03           OBSERVATION DATA    M: Mixed            RINEX VERSION / TYPE
RTKCONV demo5 b33c                      20210520 090924 UTC PGM / RUN BY / DATE 
log: C:\Users\Ivan_PolyU_Dktp\Dropbox\HUAWEI Exp\20210518_  COMMENT             
format: RINEX                                               COMMENT             
Geo++                                                       MARKER NAME         
                                                            MARKER NUMBER       
                                                            MARKER TYPE         
                                                            OBSERVER / AGENCY   
unknown             Google              Pixel 4             REC # / TYPE / VERS 
unknown             Pixel 4                                 ANT # / TYPE        
 -2418133.5169  5385865.7344  2405575.6893                  APPROX POSITION XYZ 
        0.0000        0.0000        0.0000                  ANTENNA: DELTA H/E/N
G    4 C1C L1C D1C S1C                                      SYS / # / OBS TYPES 
R    4 C1C L1C D1C S1C                                      SYS / # / OBS TYPES 
E    8 C1C L1C D1C S1C C5Q L5Q D5Q S5Q                      SYS / # / OBS TYPES 
J    8 C1C L1C D1C S1C C5Q L5Q D5Q S5Q                      SYS / # / OBS TYPES 
  2021     5    18     7    20   46.4406727     GPS         TIME OF FIRST OBS   
  2021     5    18     7    27   24.4406613     GPS         TIME OF LAST OBS    
G                                                           SYS / PHASE SHIFT   
R                                                           SYS / PHASE SHIFT   
E                                                           SYS / PHASE SHIFT   
J                                                           SYS / PHASE SHIFT   
  3 R01  1 R09 -2 R17  4                                    GLONASS SLOT / FRQ #
 C1C    0.000 C1P    0.000 C2C    0.000 C2P    0.000        GLONASS COD/PHS/BIS 
                                                            END OF HEADER       
> 2021  5 18  7 20 46.4406727  0 13                     
E13  24311550.577 1                      -783.850          27.000    24309418.153 1                      -582.550          23.000  
E15  26667677.364 1                     -1585.650          27.500    26665565.626 1 104641406.77811     -1182.382          26.750  
E21  24195714.668 1                       290.950          20.250                                                                  
G 3  23263618.845 1 122251110.972 1     -2905.279          40.750  
G 6  21335211.953 1                       228.150          22.500  
G17  21446053.619 1                       552.100          25.000  
G19  21429899.602 1 112614930.401 1      1302.120          31.750  
G30  24787437.827 1 130258721.86511     -2406.576          28.500  
J 2  35918477.569 1 188752756.92611      -110.086          28.250    35916115.204 1 140942549.42311       -82.262          26.750  
J 3  39488903.214 1                       572.200          25.500                                                                  
R 7  21152969.317 1                      1083.900          19.000  
R21  23563495.844 1 126093042.93311     -1538.214          28.500  
R23  22659944.460 1                       993.250          25.750  
> 2021  5 18  7 20 47.4406727  0 14                     
E13  24311679.615 1                      -785.950          22.500                                                                  
E15  26667972.188 1 140141140.20711     -1579.422          29.000    26665867.345 1 104642587.504 1     -1178.781          24.500  
E21  24195658.435 1                       304.600          23.000                                                                  
G 3  23264168.192 1 122254014.164 1     -2901.197          41.000  
G 6  21335159.617 1                       239.550          21.000  
G 9  24399401.886 1                      1818.600          21.000  
G17  21445957.213 1 112699264.90211       556.804          25.750  
G19  21429651.801 1 112613626.207 1      1306.349          31.000  
G30  24787880.148 1 130261126.46211     -2402.145          26.750  
J 2  35918475.597 1 188752865.10011      -105.958          27.250    35916132.719 1                       -77.850          26.500  
J 3  39488797.215 1                       574.400          24.500                                                                  
R 8  22050718.646 1                      3543.700          16.750  
R21  23563785.871 1 126094578.83211     -1533.645          26.500  
R23  22659740.129 1                       998.250          25.250  
> 2021  5 18  7 20 48.4406727  0 13                     
E13  24311838.585 1                      -779.950          23.000                                                                  
E15  26668274.458 1                     -1578.100          28.500    26666166.617 1                     -1175.050          23.000  
E21  24195592.560 1                       291.250          24.000                                                                  
E26  25215648.990 1                       644.100          18.500                                                                  
G 3  23264724.387 1 122256914.546 1     -2900.402          40.000  
G 9  24399018.831 1                      1823.200          24.000  
G17  21445848.768 1                       557.650          24.250  
G19  21429422.840 1 112612319.39411      1306.611          27.750  
G28  20324037.682 1                      -257.050          17.000  
G30  24788323.021 1 130263527.05011     -2399.705          26.750  
J 2  35918500.860 1 188752970.04911      -104.858          29.000    35916157.082 1 140942714.05111       -78.169          26.500  
J 3  39488711.854 1                       578.750          23.250                                                                  
R23  22659564.830 1                      1003.000          26.250  
> 2021  5 18  7 20 49.4406727  0 14                     
E13  24311998.668 1                      -788.600          25.000                                                                  
E15  26668579.042 1                     -1580.250          24.500    26666467.603 1 104644945.98511     -1179.935          23.750  
G 3  23265276.599 1 122259819.245 1     -2904.156          37.250  
G 6  21335094.336 1                       230.450          21.000  
G17  21445750.431 1                       556.500          24.500  
G19  21429166.212 1 112611015.34411      1304.786          28.000  
G30  24788805.382 1 130265929.65411     -2400.438          29.500  
J 2  35918518.842 1 188753078.473 1      -105.281          29.500    35916177.163 1                       -79.000          24.000  
J 3  39488586.535 1                       578.500          21.500    39486231.366 1                       433.800          19.000  
R 7  21152265.606 1                      1089.300          19.250  
R13  22164442.890 1                      2041.950          16.500  
R21  23564399.021 1                     -1530.850          23.000  
R22  21485698.975 1                      -728.750          18.500  
R23  22659365.163 1 121212323.87011       998.133          28.250  
> 2021  5 18  7 20 50.4406727  0 16                     
E13  24312143.471 1                      -784.200          25.000                                                                  
E15  26668898.023 1                     -1579.400          24.250                                                                  
G 2  23564966.830 1                      1178.150          16.000  
G 3  23265827.620 1 122262723.02811     -2904.345          32.000  
G 6  21335034.380 1                       235.800          22.500  
G14  20716167.113 1                     -1902.400          21.750  
G17  21445620.923 1 112697498.32011       555.168          26.000  
G19  21428922.183 1 112609711.75511      1301.509          28.500  
G30  24789255.673 1 130268324.70011     -2390.560          29.750  
J 2  35918528.138 1 188753179.11311       -98.786          30.000    35916195.752 1 140942865.80411       -72.293          24.250  
J 3  39488485.807 1                       577.450          23.750                                                                  
R 8  22048720.606 1                      3544.850          21.000  
R12  20259602.386 1                     -1452.850          17.500  
R21  23564686.524 1                     -1531.950          23.000  
R22  21485882.450 1                      -731.050          22.750  
R23  22659172.099 1 121211323.68111       999.635          26.500  
> 2021  5 18  7 20 51.4406726  0 14                     
G 3  23266389.886 1 122265471.82911     -2907.038          27.000  
G 6  21334989.866 1                       237.150          23.500  
G 9  24397996.691 1                      1817.300          19.250  
G14  20716467.960 1                     -1898.400          24.750  
G17  21445518.549 1                       550.050          22.500  
G19  21428636.636 1                      1296.250          25.500  
G30  24789673.439 1 130270556.09711     -2387.462          29.500  
J 1  37433630.509 1                      -138.500          16.500                                                                  
J 2  35918523.796 1 188753121.97611       -98.642          31.000    35916182.417 1                       -72.650          29.250  
R 7  21151844.555 1                      1088.150          20.000  
R 8  22048000.659 1                      3547.450          25.500  
R21  23564920.518 1                     -1521.550          25.250  
R22  21485954.856 1                      -740.300          21.750  
R23  22658936.317 1                       994.000          22.500  
> 2021  5 18  7 20 52.4406726  0 13                     
E13  24312426.450 1                      -795.900          21.000                                                                  
E21  24195333.811 1                       296.850          19.000                                                                  
E26  25215156.702 1                       640.850          19.750                                                                  
G 2  23564461.655 1                      1184.350          19.250  
G 6  21334907.243 1                       226.200          22.000  
G14  20716822.434 1 108867636.34511     -1897.929          33.750  
G17  21445382.862 1                       540.250          22.500  
G30  24790136.438 1 130272939.82711     -2383.545          27.250  
J 2  35918533.809 1 188753215.738 1       -93.251          35.500    35916194.228 1 140942859.65711       -71.506          30.750  
R 7  21151696.277 1                      1091.400          23.500  
R12  20260172.267 1                     -1448.250          25.250  
R21  23565238.417 1                     -1522.750          23.750  
R23  22658724.184 1                       998.500          21.500  
> 2021  5 18  7 20 53.4406726  0 19                     
E13  24312560.368 1                      -782.550          22.750                                                                  
E15  26670016.135 1                     -1563.000          22.750                                                                  
E21  24195276.162 1                       295.300          31.500    24193158.428 1                       216.250          16.250  
E26  25215019.608 1 132505822.00611       647.390          29.750    25212888.983 1                       479.350          20.000  
G 2  23564210.340 1 123830761.01311      1187.554          31.000  
G 3  23267703.907 1                     -2888.850          25.750  
G 6  21334847.495 1 112115379.82511       234.175          31.500  
G14  20717180.297 1 108869528.783 1     -1887.630          40.000  
G17  21445408.556 1                       562.050          21.750  
G19  21428174.686 1                      1296.350          20.750  
G28  20324218.939 1                      -253.450          27.250  
G30  24790582.440 1 130275316.65111     -2370.092          28.750  
J 2  35918547.510 1 188753304.910 1       -83.512          37.250    35916210.628 1 140942926.138 1       -62.299          28.250  
J 3  39488098.361 1                       575.250          23.500                                                                  
R 7  21151424.277 1 113225230.16611      1086.638          32.000  
R 8  22046697.792 1                      3548.350          20.000  
R12  20260429.699 1 108227578.83811     -1438.693          30.250  
R21  23565479.661 1                     -1518.400          22.250  
R22  21486409.671 1                      -710.750          23.250  
> 2021  5 18  7 20 54.4406726  0 16                     
E13  24312708.009 1                      -801.400          24.250                                                                  
E21  24195216.646 1 127146721.47511       291.449          30.750    24193098.313 1  94938913.18711       217.396          29.750  
E26  25214890.241 1 132505176.79011       641.650          31.500    25212768.610 1  98940319.31611       479.237          33.250  
G 2  23563984.439 1 123829572.807 1      1184.336          31.250  
G 6  21334805.368 1 112115147.147 1       228.669          36.500  
G 9  24397035.430 1                      1829.150          21.500  
G14  20717534.196 1 108871415.784 1     -1890.433          39.000  
G17  21445192.548 1                       541.300          23.500  
G28  20324263.751 1 106804726.17311      -256.523          33.750  
G30  24791042.465 1                     -2368.200          25.250  
J 2  35918570.737 1 188753387.221 1       -85.234          36.000    35916226.060 1 140942987.641 1       -63.714          29.250  
J 3  39487988.481 1 207510779.72011       572.507          29.750    39485648.900 1                       432.000          17.500  
R 7  21151308.100 1                      1085.650          22.250  
R12  20260678.970 1 108229016.54411     -1441.347          30.000  
R21  23565784.093 1                     -1511.000          23.250  
R22  21486450.286 1                      -704.550          22.750  
> 2021  5 18  7 20 55.4406726  0 17                     
E13  24312856.267 1                      -805.150          27.250                                                                  
E15  26670608.230 1                     -1557.050          26.500                                                                  
E21  24195167.641 1 127146434.890 1       285.841          33.000    24193043.612 1  94938699.145 1       212.751          29.000  
E26  25214774.382 1 132504540.14811       636.156          31.750    25212647.355 1  98939843.869 1       474.095          34.250  
G 2  23563758.857 1 123828392.649 1      1179.819          32.500  
G 6  21334766.856 1 112114923.268 1       222.972          36.250  
G14  20717900.403 1 108873310.470 1     -1895.274          38.250  
G17  21445053.906 1                       532.550          24.250  
G19  21427680.333 1                      1285.050          19.500  
G28  20324305.284 1 106804987.147 1      -261.830          34.000  
G30  24791485.119 1                     -2374.050          25.500  
J 2  35918581.691 1 188753476.228 1       -89.001          35.750    35916242.110 1 140943054.081 1       -66.477          31.500  
J 3  39487884.614 1 207510212.45011       566.488          30.750    39485542.635 1 154949749.65511       422.469          23.500  
R12  20260970.230 1 108230459.64311     -1443.374          27.250  
R21  23566042.376 1                     -1508.450          25.500  
R22  21486712.166 1                      -702.550          25.500  
R23  22658198.863 1                       987.500          27.000  
> 2021  5 18  7 20 56.4406726  0 19                     
E13  24313012.458 1 127765742.91211      -801.404          30.500                                                                  
E15  26670911.019 1                     -1552.050          28.000    26668560.646 1                     -1185.850          23.000  
E21  24195107.981 1 127146147.215 1       290.520          36.000    24192987.249 1  94938484.380 1       217.268          30.000  
E26  25214646.370 1 132503901.902 1       641.097          34.250    25212526.537 1  98939367.236 1       479.400          35.500  
G 2  23563544.504 1 123827211.27611      1184.688          30.250  
G 3  23269133.920 1                     -2923.350          29.750  
G 6  21334720.087 1 112114698.286 1       228.063          39.250  
G14  20718262.851 1 108875203.670 1     -1890.418          39.750  
G19  21427418.613 1                      1293.500          21.500  
G28  20324360.444 1 106805247.037 1      -256.982          35.500  
G30  24791926.712 1 130282453.74311     -2367.430          29.500  
J 2  35918597.279 1 188753562.877 1       -83.591          38.000    35916258.897 1 140943118.845 1       -62.506          30.000  
J 3  39487773.090 1 207509643.977 1       571.607          32.500    39485435.308 1                       427.550          25.750  
R 7  21150984.784 1                      1092.200          20.500  
R 8  22044701.777 1                      3554.850          19.250  
R12  20261248.136 1 108231903.56011     -1442.374          26.500  
R21  23566321.481 1 126108145.58611     -1504.322          29.250  
R22  21486848.570 1 114698256.45611      -700.901          27.500  
R23  22658019.585 1 121205126.21911       989.844          31.250  
> 2021  5 18  7 20 57.4406726  0 21                     
E13  24313158.175 1 127766540.90611      -800.275          30.000                                                                  
E15  26671200.636 1                     -1553.800          31.000                                                                  
E21  24195049.840 1 127145854.279 1       289.805          35.500    24192932.705 1  94938265.571 1       215.810          29.750  
E26  25214525.272 1 132503257.998 1       640.598          34.750    25212404.540 1  98938886.427 1       477.725          35.250  
G 2  23563317.579 1 123826023.13011      1183.675          33.000  
G 3  23269689.154 1 122283041.50311     -2922.924          35.000  
G 6  21334679.333 1 112114467.797 1       227.436          41.000  
G 9  24395878.709 1                      1828.950          22.250  
G14  20718621.121 1 108877091.891 1     -1892.214          40.750  
G17  21444866.852 1                       541.650          22.250  
G19  21427188.390 1                      1296.650          23.500  
G28  20324415.924 1 106805501.883 1      -258.457          37.500  
G30  24792382.115 1 130284819.024 1     -2369.533          32.250  
J 2  35918616.483 1 188753644.275 1       -85.621          38.750    35916274.804 1 140943179.629 1       -63.990          30.000  
J 3  39487663.683 1 207509069.435 1       572.044          34.500    39485324.703 1 154948895.16211       427.083          25.000  
R 7  21150748.566 1                      1095.250          24.500  
R 8  22044040.752 1 118044836.51911      3559.797          26.750  
R12  20261538.053 1                     -1446.200          25.500  
R21  23566641.678 1                     -1514.300          26.000  
R22  21486961.610 1 114698954.936 1      -702.732          31.250  
R23  22657826.837 1 121204132.77111       990.502          31.000  
> 2021  5 18  7 20 58.4406725  0 21                     
E13  24313290.378 1                      -799.900          28.000                                                                  
E15  26671477.639 1                     -1563.950          31.250                                                                  
E21  24194969.190 1 127145409.453 1       286.535          37.000    24192847.859 1  94937933.356 1       214.106          27.750  
E26  25214378.368 1 132502461.947 1       638.029          36.000    25212252.240 1  98938291.968 1       476.384          33.250  
G 2  23563046.261 1 123824684.52411      1179.922          30.750  
G 3  23270420.642 1                     -2894.100          27.500  
G 6  21334600.482 1 112114084.718 1       225.214          39.250  
G14  20718948.789 1 108878830.419 1     -1898.729          40.000  
G17  21444775.110 1                       543.700          24.250  
G19  21426886.194 1                      1291.250          23.250  
G28  20324430.608 1 106805605.847 1      -263.087          36.500  
G30  24792809.914 1 130287036.255 1     -2378.954          32.250  
J 1  37433778.053 1                      -138.000          20.250                                                                  
J 2  35918600.589 1 188753576.643 1       -93.313          38.750    35916262.508 1 140943129.137 1       -69.714          28.750  
J 3  39487521.876 1 207508341.067 1       571.304          34.000    39485184.994 1                       424.350          23.250  
R 7  21150512.024 1                      1084.850          24.500  
R 8  22043305.356 1 118041121.261 1      3550.475          33.750  
R12  20261713.127 1 108234434.04011     -1449.361          29.000  
R21  23566862.619 1                     -1518.350          26.500  
R22  21487071.029 1 114699502.53511      -710.545          30.500  
R23  22657614.578 1 121202982.67511       990.324          31.000  
> 2021  5 18  7 20 59.4406725  0 21                     
E13  24313433.590 1                      -796.250          28.000                                                                  
E15  26671773.445 1                     -1572.700          27.250                                                                  
E21  24194913.639 1 127145126.191 1       285.980          35.250    24192792.908 1  94937721.884 1       213.915          27.000  
E26  25214249.668 1 132501827.12911       638.014          35.750    25212131.634 1  98937817.922 1       476.538          33.500  
G 2  23562833.020 1                      1173.350          25.000  
G 3  23270985.661 1 122289854.58711     -2899.911          30.500  
G 4  25005992.841 1 131407378.58811      1096.057          27.750  
G 6  21334568.315 1 112113862.274 1       225.882          40.000  
G14  20719310.250 1 108880734.677 1     -1903.335          38.750  
G17  21444635.917 1                       547.900          25.250  
G19  21426640.875 1                      1301.200          24.000  
G28  20324478.486 1 106805873.314 1      -265.447          35.250  
G30  24793264.909 1 130289422.642 1     -2387.405          32.750  
J 2  35918620.886 1 188753676.242 1       -99.456          38.500    35916280.706 1 140943203.445 1       -74.264          29.500  
J 3  39487423.455 1 207507771.665 1       573.604          33.750    39485078.479 1 154947928.14711       428.532          24.000  
R 7  21150339.854 1                      1082.350          24.750  
R 8  22042667.608 1 118037577.191 1      3544.080          33.250  
R12  20261990.645 1                     -1451.650          24.750  
R21  23567133.243 1 126112490.13511     -1522.921          28.000  
R22  21487211.842 1                      -719.200          21.500  
R23  22657417.226 1 121201994.17211       991.637          32.000  
> 2021  5 18  7 21  0.4406725  0 21                     
E13  24313588.764 1                      -791.850          28.250                                                                  
E15  26672066.823 1                     -1573.450          32.750                                                                  
E21  24194859.558 1 127144839.359 1       285.556          37.500    24192739.126 1  94937507.749 1       213.352          27.500  
E26  25214122.137 1 132501188.592 1       637.394          34.750    25212010.399 1  98937340.987 1       476.169          33.250  
G 2  23562608.057 1                      1176.750          24.000  
G 3  23271406.451 1                     -2912.650          25.000  
G 6  21334516.932 1 112113635.142 1       226.245          38.500  
G 9  24394726.993 1                      1823.600          23.000  
G14  20719674.079 1 108882639.441 1     -1907.460          40.000  
G17  21444537.466 1                       546.950          25.250  
G19  21426435.698 1                      1302.250          25.000  
G28  20324533.829 1 106806139.078 1      -267.659          36.000  
G30  24793711.781 1 130291812.818 1     -2394.123          34.250  
J 1  37433830.609 1                      -147.200          20.250                                                                  
J 2  35918640.853 1 188753777.810 1      -104.986          39.250    35916300.373 1 140943279.315 1       -78.379          30.250  
J 3  39487311.514 1 207507195.983 1       575.435          35.000    39484966.238 1                       430.350          25.500  
R 7  21150178.747 1                      1078.200          23.500  
R 8  22041999.252 1 118034035.845 1      3537.929          32.500  
R12  20262248.948 1                     -1456.150          25.750  
R21  23567473.988 1                     -1527.950          24.250  
R23  22657252.521 1 121201000.73111       992.885          26.750  
> 2021  5 18  7 21  1.4406725  0 20                     
E13  24313742.673 1                      -791.000          28.250                                                                  
E15  26672354.140 1 140164167.51111     -1581.200          29.250                                                                  
E21  24194805.411 1 127144553.622 1       284.822          36.750    24192686.178 1  94937294.326 1       212.677          27.750  
E26  25214008.332 1 132500550.468 1       637.236          37.750    25211890.598 1  98936864.588 1       475.723          34.000  
G 2  23562389.324 1 123821191.61011      1173.538          32.000  
G 3  23271966.579 1 122295009.47011     -2911.518          29.000  
G 6  21334481.672 1 112113408.341 1       226.081          41.000  
G14  20720035.744 1 108884548.171 1     -1910.671          40.750  
G19  21426194.181 1                      1304.450          23.000  
G28  20324582.511 1 106806407.309 1      -269.635          36.250  
G30  24794166.382 1 130294209.150 1     -2398.790          35.250  
J 1  37433842.417 1                      -143.900          25.000                                                                  
J 2  35918660.755 1 188753884.333 1      -108.709          39.500    35916320.575 1 140943358.886 1       -81.053          30.250  
J 3  39487197.408 1 207506619.659 1       576.177          34.750    39484859.327 1 154947068.87011       430.165          27.000  
R 7  21149930.034 1                      1075.900          23.500  
R 8  22041324.835 1 118030499.944 1      3533.474          35.000  
R12  20262529.369 1 108238794.31011     -1458.686          31.000  
R13  22159786.026 1                      2041.900          11.000  
R22  21487442.679 1                      -727.100          22.500  
R23  22657048.778 1 121200006.74311       994.040          32.500  
> 2021  5 18  7 21  2.4406725  0 19                     
E13  24313893.151 1 127770370.45211      -785.001          30.000                                                                  
E15  26672466.844 1                     -1575.750          28.250                                                                  
E21  24194753.829 1 127144268.310 1       288.568          37.250    24192631.299 1  94937081.240 1       215.841          28.000  
E26  25213880.003 1 132499912.574 1       641.121          36.000    25211768.865 1  98936388.151 1       479.423          35.000  
G 2  23562157.866 1 123820017.620 1      1177.164          29.500  
G 3  23272450.127 1 122297550.853 1     -2906.626          31.250  
G 6  21334435.487 1 112113181.418 1       230.520          40.250  
G14  20720402.972 1 108886459.030 1     -1907.951          40.500  
G17  21444371.779 1                       548.700          20.500  
G19  21425933.644 1                      1306.800          20.500  
G28  20324636.756 1 106806676.811 1      -266.411          35.000  
G30  24794631.942 1 130296608.419 1     -2396.360          35.500  
J 2  35918681.123 1 188753993.314 1      -106.032          38.750    35916341.243 1 140943440.241 1       -79.142          30.750  
J 3  39487093.663 1 207506042.500 1       581.071          37.250    39484748.386 1                       434.200          26.750  
R 7  21149640.418 1                      1077.100          21.500  
R 8  22040680.863 1 118026966.730 1      3536.101          36.000  
R12  20262839.937 1 108240252.919 1     -1455.617          30.750  
R21  23567988.230 1                     -1533.750          23.500  
R23  22656846.101 1 121199012.11011       998.831          27.000  
> 2021  5 18  7 21  3.4406724  0 20                     
E13  24314002.496 1                      -782.750          28.500                                                                  
E15  26672913.156 1 140167104.83311     -1573.301          29.500                                                                  
E21  24194665.012 1 127143818.700 1       290.374          37.000    24192544.580 1  94936745.407 1       217.454          23.750  
E26  25213735.424 1 132499109.90411       643.573          32.500    25211616.191 1  98935788.865 1       481.054          35.000  
G 2  23561903.563 1 123818679.757 1      1179.400          29.000  
G 3  23272966.291 1 122300296.78511     -2905.203          27.500  
G 4  25005142.230 1                      1087.300          27.250  
G 6  21334355.063 1 112112790.012 1       232.334          39.000  
G 9  24393615.381 1                      1822.900          22.250  
G14  20720731.166 1 108888206.305 1     -1905.783          41.250  
G17  21444182.531 1                       553.250          23.000  
G19  21425624.179 1 112592414.42011      1307.642          27.250  
G28  20324656.163 1 106806782.508 1      -264.517          35.000  
G30  24795056.969 1 130298843.849 1     -2393.017          34.000  
J 2  35918671.151 1 188753938.507 1      -103.324          38.750    35916330.672 1 140943399.310 1       -77.235          29.500  
J 3  39486940.989 1 207505300.300 1       583.173          34.750    39484609.204 1 154946086.56511       435.694          26.500  
R 8  22039974.473 1 118023266.756 1      3538.961          37.000  
R12  20263068.599 1 108241545.228 1     -1453.757          32.000  
R21  23568236.080 1 126118391.79811     -1527.446          29.500  
R23  22656641.563 1                      1001.900          23.000  
> 2021  5 18  7 21  4.4406724  0 22                     
E13  24314151.041 1                      -785.450          26.500                                                                  
E15  26673226.287 1 140168679.65711     -1573.803          30.500                                                                  
E21  24194612.396 1 127143530.331 1       287.982          36.500    24192488.666 1  94936530.070 1       215.170          24.250  
E26  25213613.856 1 132498468.239 1       641.274          35.000    25211492.824 1  98935309.719 1       478.999          34.000  
G 2  23561668.973 1 123817501.78911      1178.150          29.750  
G 3  23273624.782 1 122303723.01011     -2909.587          29.500  
G 4  25004941.217 1 131401852.80711      1090.733          26.750  
G 6  21334313.839 1 112112559.874 1       229.619          39.000  
G 9  24393371.797 1                      1828.850          23.750  
G14  20721097.060 1 108890113.208 1     -1906.342          40.500  
G17  21444077.152 1 112689385.33411       553.414          25.750  
G19  21425372.201 1 112591109.80211      1304.322          26.250  
G28  20324704.877 1 106807048.732 1      -266.147          35.000  
G30  24795507.704 1 130301236.468 1     -2390.731          36.000  
J 2  35918688.986 1 188754042.133 1      -102.296          39.250    35916352.104 1 140943476.681 1       -76.389          32.000  
J 3  39486838.008 1 207504719.380 1       580.447          36.000    39484496.329 1                       436.350          26.250  
R 7  21149309.215 1                      1077.100          20.500  
R 8  22039318.674 1 118019728.121 1      3539.907          37.250  
R12  20263329.866 1 108243000.49311     -1455.050          31.750  
R21  23568530.623 1 126119919.48911     -1526.776          30.250  
R22  21487736.227 1                      -723.800          19.250  
R23  22656456.139 1 121196762.94211       997.824          31.250  
> 2021  5 18  7 21  5.4406724  0 20                     
E13  24314310.596 1                      -784.250          25.500    24312195.860 1                      -588.850          16.500  
E15  26673518.051 1                     -1573.400          29.500                                                                  
E21  24194550.105 1 127143242.421 1       286.431          34.000    24192435.968 1  94936315.057 1       214.405          28.750  
E26  25213484.111 1 132497826.421 1       640.452          34.500    25211371.474 1  98934830.460 1       479.015          35.750  
G 2  23561460.983 1 123816323.35811      1177.076          28.750  
G 3  23274232.227 1 122306915.81711     -2907.347          30.000  
G 6  21334274.632 1 112112330.446 1       228.248          38.250  
G14  20721455.678 1 108892018.992 1     -1907.613          39.250  
G17  21443973.789 1 112688832.72211       551.683          30.000  
G19  21425111.147 1                      1299.000          23.500  
G28  20324756.207 1 106807314.716 1      -267.664          35.750  
G30  24795960.457 1 130303625.712 1     -2391.059          36.500  
J 2  35918707.639 1 188754143.496 1      -103.286          38.500    35916370.457 1 140943552.364 1       -77.103          32.000  
J 3  39486723.553 1 207504138.875 1       579.794          33.750    39484385.472 1 154945209.34611       433.049          27.500  
R 7  21149073.344 1                      1073.900          25.000  
R 8  22038658.897 1 118016187.087 1      3539.000          37.250  
R12  20263590.751 1 108244456.37111     -1456.951          34.000  
R21  23568819.689 1 126121444.62111     -1526.076          33.500  
R22  21487935.655 1                      -722.500          23.750  
R23  22656269.434 1 121195764.53411       996.616          34.000  
> 2021  5 18  7 21  6.4406724  0 19                     
E13  24314475.071 1                      -786.750          25.500                                                                  
E21  24194502.926 1 127142957.531 1       284.625          36.250    24192380.396 1  94936102.425 1       212.417          29.500  
E26  25213363.484 1 132497187.652 1       638.741          36.500    25211249.647 1  98934353.423 1       476.912          34.750  
G 2  23561242.324 1 123815148.55811      1174.080          29.500  
G 3  23274837.098 1 122310094.37611     -2909.413          28.000  
G 4  25004554.140 1                      1084.600          26.000  
G 6  21334227.154 1 112112103.432 1       227.063          41.250  
G 9  24392594.990 1                      1819.300          22.250  
G14  20721820.414 1 108893929.696 1     -1912.131          39.500  
G17  21443864.554 1 112688281.545 1       551.992          28.250  
G19  21424896.385 1                      1300.900          25.500  
G28  20324812.158 1 106807584.717 1      -270.796          35.250  
G30  24796417.829 1 130306020.746 1     -2397.162          38.250  
J 2  35918730.912 1 188754250.123 1      -108.461          39.000    35916388.034 1 140943632.037 1       -81.065          30.000  
J 3  39486613.419 1 207503560.266 1       579.036          34.500    39484275.937 1                       430.250          29.750  
R 8  22037994.446 1 118012651.659 1      3533.398          35.500  
R12  20263902.724 1 108245916.53011     -1460.691          31.500  
R21  23569093.288 1 126122974.86011     -1532.335          28.750  
R23  22656081.353 1 121194768.94411       996.344          33.500  
> 2021  5 18  7 21  7.4406724  0 20                     
E13  24314603.814 1                      -783.350          25.250                                                                  
E21  24194446.697 1 127142674.629 1       283.240          35.250    24192326.565 1  94935891.178 1       211.688          27.750  
E26  25213245.197 1 132496550.320 1       637.922          37.000    25211128.363 1  98933877.523 1       476.166          34.250  
G 2  23561008.617 1 123813976.460 1      1172.738          29.000  
G 3  23275381.353 1 122313006.23511     -2912.408          28.000  
G 6  21334182.617 1 112111877.926 1       225.961          40.500  
G14  20722183.595 1 108895844.225 1     -1914.116          40.250  
G17  21443779.844 1 112687731.01911       550.823          26.500  
G19  21424677.068 1                      1302.850          24.500  
G28  20324862.354 1 106807857.678 1      -272.681          36.000  
G30  24796873.645 1 130308420.497 1     -2399.047          37.500  
J 1  37434026.626 1                      -141.450          22.000                                                                  
J 2  35918749.031 1 188754360.949 1      -110.210          39.500    35916409.451 1 140943714.741 1       -82.416          30.500  
J 3  39486506.224 1 207502982.463 1       578.514          35.250    39484166.944 1 154944351.74911       432.182          29.750  
R 8  22037374.907 1 118009120.880 1      3531.340          36.000  
R12  20264158.279 1 108247379.546 1     -1462.687          33.250  
R13  22157551.510 1                      2037.600          17.500  
R21  23569391.114 1 126124508.42211     -1533.428          31.750  
R22  21488261.850 1                      -727.650          21.250  
R23  22655877.027 1 121193773.987 1       995.639          33.000  
> 2021  5 18  7 21  8.4406723  0 20                     
E13  24314722.627 1                      -788.100          26.000                                                                  
E15  26674367.779 1                     -1575.600          26.250                                                                  
E21  24194363.151 1 127142234.344 1       283.391          36.000    24192243.618 1  94935562.377 1       211.606          28.500  
E26  25213093.898 1 132495755.269 1       638.110          37.250    25210976.464 1  98933283.767 1       476.796          34.500  
G 2  23560754.489 1 123812646.78011      1173.145          29.500  
G 3  23275834.435 1 122315334.86211     -2910.946          26.000  
G 4  25004124.764 1                      1080.400          25.500  
G 6  21334114.959 1 112111494.886 1       226.234          40.250  
G14  20722520.357 1 108897601.244 1     -1913.806          40.000  
G17  21443626.146 1 112687022.40711       551.821          31.000  
G19  21424353.688 1                      1301.400          25.500  
G28  20324878.339 1 106807973.250 1      -272.418          36.250  
G30  24797309.340 1 130310661.901 1     -2397.554          36.250  
J 2  35918744.930 1 188754313.750 1      -109.192          39.500    35916401.452 1 140943679.573 1       -81.570          30.750  
J 3  39486364.518 1 207502246.752 1       579.151          33.750    39484026.737 1 154943802.308 1       432.472          30.000  
R 7  21148418.114 1                      1065.600          18.250  
R 8  22036644.708 1 118005429.073 1      3532.364          34.000  
R12  20264400.007 1 108248682.826 1     -1462.613          34.250  
R21  23569622.350 1 126125881.411 1     -1532.186          30.250  
R23  22655675.662 1 121192618.230 1       996.217          35.750  
> 2021  5 18  7 21  9.4406723  0 19                     
E13  24314876.394 1                      -786.800          28.000                                                                  
E21  24194309.161 1 127141949.286 1       282.784          36.000    24192188.429 1  94935349.536 1       211.652          28.750  
E26  25212971.555 1 132495115.137 1       637.942          35.250    25210855.020 1  98932805.718 1       476.492          36.250  
G 2  23560547.305 1 123811471.66511      1173.616          30.750  
G 6  21334065.166 1 112111267.116 1       225.620          39.750  
G 9  24391565.703 1                      1819.500          19.000  
G14  20722885.477 1 108899512.920 1     -1913.106          39.500  
G17  21443515.196 1 112686469.10011       550.764          28.250  
G19  21424110.829 1                      1301.200          24.750  
G28  20324934.973 1 106808243.864 1      -272.367          35.000  
G30  24797756.603 1 130313056.492 1     -2394.934          35.000  
J 2  35918763.490 1 188754420.485 1      -107.478          39.500    35916422.410 1 140943759.254 1       -80.206          32.250  
J 3  39486250.870 1 207501665.906 1       578.821          33.250    39483913.688 1 154943368.523 1       432.328          27.750  
R 7  21148243.008 1                      1072.450          24.750  
R 8  22035991.433 1 118001894.146 1      3534.272          36.750  
R12  20264672.791 1 108250143.21011     -1462.480          31.000  
R21  23569929.010 1 126127410.79211     -1528.435          28.250  
R22  21488470.574 1                      -722.200          24.000  
R23  22655503.853 1 121191620.512 1       995.504          34.000  
> 2021  5 18  7 21 10.4406723  0 22                     
E13  24315027.821 1 127776333.39611      -789.463          29.500                                                                  
E15  26674965.270 1                     -1573.550          26.000                                                                  
E21  24194257.628 1 127141669.051 1       281.737          35.500    24192137.496 1  94935140.330 1       210.480          29.250  
E26  25212849.272 1 132494479.487 1       637.079          36.500    25210733.337 1  98932331.030 1       475.559          35.500  
G 2  23560323.092 1                      1173.150          25.000  
G 3  23276976.949 1 122321339.31511     -2908.134          29.000  
G 6  21334028.624 1 112111044.154 1       224.281          36.250  
G 9  24391125.340 1 128176228.30111      1822.017          29.000  
G14  20723251.856 1 108901427.749 1     -1912.637          39.250  
G17  21443407.902 1 112685921.35611       548.396          28.000  
G19  21423883.319 1                      1297.050          21.750  
G28  20324984.770 1 106808518.621 1      -272.862          35.000  
G30  24798210.520 1 130315451.886 1     -2391.964          33.500  
J 2  35918783.908 1 188754529.208 1      -105.897          38.750    35916442.828 1 140943840.401 1       -78.904          32.000  
J 3  39486154.069 1 207501089.972 1       577.617          32.000    39483806.094 1                       432.500          27.250  
R 7  21148043.978 1                      1066.150          21.500  
R 8  22035338.517 1 117998361.048 1      3535.981          36.250  
R12  20264936.041 1 108251609.123 1     -1463.391          32.250  
R13  22156430.087 1                      2020.400          20.000  
R21  23570261.812 1 126129231.13511     -1528.375          31.500  
R22  21488553.648 1                      -723.600          25.000  
R23  22655292.832 1 121190627.43711       994.778          34.500  
> 2021  5 18  7 21 11.4406723  0 23                     
E13  24315177.009 1 127777121.96711      -791.121          28.750    24313063.772 1                      -591.500          17.000  
E15  26675293.134 1                     -1575.550          27.500                                                                  
E21  24194199.060 1 127141384.857 1       282.017          35.000    24192082.825 1  94934927.981 1       210.813          28.500  
E26  25212724.449 1 132493839.287 1       637.787          34.000    25210612.112 1  98931853.072 1       476.830          36.750  
G 2  23560095.741 1                      1174.200          24.500  
G 3  23277557.238 1 122324244.93111     -2906.216          30.500  
G 6  21333980.548 1 112110817.475 1       224.335          38.250  
G 9  24390779.270 1 128174401.979 1      1824.712          35.250  
G14  20723610.898 1 108903337.121 1     -1910.924          39.500  
G17  21443307.363 1 112685370.50511       547.771          29.250  
G19  21423605.602 1 112581807.18611      1298.956          26.000  
G28  20325037.425 1 106808788.788 1      -272.091          35.750  
G30  24798669.993 1 130317839.478 1     -2388.111          33.750  
J 1  37434031.715 1                      -138.800          22.000                                                                  
J 2  35918801.786 1 188754631.260 1      -103.059          39.000    35916461.307 1 140943916.640 1       -77.062          31.750  
J 3  39486039.439 1 207500510.048 1       577.803          33.250    39483695.362 1 154942500.41611       431.437          27.250  
R 7  21147824.421 1                      1066.250          22.250  
R 8  22034671.070 1 117994821.028 1      3538.856          37.500  
R12  20265240.521 1 108253068.82811     -1462.271          31.750  
R13  22155987.185 1                      2023.550          22.500  
R21  23570518.025 1 126130754.73511     -1524.984          31.750  
R22  21488788.277 1                      -731.050          23.750  
R23  22655099.356 1 121189631.17111       994.018          37.000  
> 2021  5 18  7 21 12.4406723  0 19                     
E13  24315328.265 1                      -789.400          26.000                                                                  
E21  24194145.858 1 127141104.727 1       279.992          34.750    24192029.623 1  94934718.827 1       209.074          28.250  
E26  25212607.392 1 132493203.083 1       636.321          35.000    25210491.456 1  98931377.978 1       474.994          34.750  
G 2  23559866.261 1 123807932.59911      1172.989          27.500  
G 3  23278084.134 1                     -2906.250          25.000  
G 6  21333940.537 1 112110595.012 1       222.284          37.500  
G 9  24390428.674 1 128172578.325 1      1823.754          36.250  
G14  20723979.204 1 108905249.431 1     -1912.497          39.500  
G17  21443206.494 1 112684824.776 1       545.801          29.500  
G19  21423384.816 1                      1299.500          22.250  
G28  20325088.850 1 106809062.719 1      -274.190          34.750  
G30  24799118.944 1 130320227.843 1     -2388.197          33.750  
J 2  35918824.732 1 188754735.192 1      -103.883          39.000    35916481.554 1 140943994.232 1       -77.760          30.750  
J 3  39485928.377 1 207499934.246 1       575.895          33.250    39483585.499 1                       430.250          26.000  
R 7  21147628.218 1                      1071.300          24.500  
R 8  22034009.589 1 117991283.006 1      3538.000          40.000  
R12  20265490.409 1 108254533.55911     -1464.500          33.500  
R21  23570795.195 1 126132280.46611     -1524.887          31.500  
R23  22654920.242 1 121188640.008 1       991.544          35.500  
> 2021  5 18  7 21 13.4406723  0 19                     
E13  24315475.585 1                      -790.600          23.750                                                                  
E21  24194097.713 1 127140826.690 1       277.899          34.250    24191976.381 1  94934511.223 1       207.660          27.750  
E26  25212491.194 1 132492568.606 1       634.451          36.250    25210369.562 1  98930904.108 1       473.822          34.000  
G 2  23559631.645 1                      1171.850          24.000  
G 6  21333899.287 1 112110374.216 1       221.025          37.500  
G 9  24390084.634 1 128170757.58411      1819.104          31.500  
G14  20724342.075 1 108907165.009 1     -1917.257          38.500  
G17  21443118.776 1 112684280.24711       545.358          26.500  
G19  21423160.093 1                      1301.950          22.250  
G28  20325142.935 1 106809339.237 1      -277.345          34.250  
G30  24799572.351 1 130322619.817 1     -2394.501          32.500  
J 2  35918843.140 1 188754842.484 1      -109.512          37.500    35916503.860 1 140944074.402 1       -81.762          31.250  
J 3  39485815.177 1 207499359.530 1       575.471          34.000    39483474.398 1 154941633.28411       429.858          25.250  
R 7  21147431.976 1                      1058.850          22.000  
R 8  22033348.668 1 117987748.489 1      3532.091          36.000  
R12  20265766.640 1 108256000.695 1     -1468.457          30.250  
R21  23571069.326 1                     -1531.200          25.750  
R22  21489075.461 1                      -729.750          20.000  
R23  22654743.486 1 121187649.195 1       991.822          34.750  
> 2021  5 18  7 21 14.4406722  0 19                     
E13  24315603.938 1                      -795.300          22.000                                                                  
E15  26676153.863 1                     -1576.750          24.750                                                                  
E21  24194006.318 1 127140390.224 1       278.018          33.000    24191891.582 1  94934185.241 1       207.677          28.750  
E26  25212328.149 1 132491775.159 1       635.091          34.250    25210218.210 1  98930311.634 1       474.241          34.500  
G 2  23559381.660 1 123805386.20211      1169.032          30.750  
G 6  21333823.482 1 112109994.052 1       221.945          37.000  
G 9  24389711.734 1 128168781.134 1      1816.756          30.500  
G14  20724675.486 1 108908924.902 1     -1919.549          37.500  
G17  21442893.974 1                       543.500          22.250  
G28  20325164.862 1 106809458.664 1      -278.457          33.000  
G30  24800002.596 1 130324858.195 1     -2398.897          29.000  
J 1  37434058.121 1                      -151.500          23.750                                                                  
J 2  35918832.990 1 188754795.078 1      -112.374          35.750    35916493.110 1 140944038.989 1       -84.245          30.500  
J 3  39485681.512 1 207498624.639 1       577.133          33.500    39483338.034 1                       433.150          25.500  
R 7  21147199.679 1 113202615.21911      1061.566          26.750  
R 8  22032667.282 1 117984056.775 1      3528.569          35.500  
R12  20265992.126 1 108257308.903 1     -1470.179          31.750  
R21  23571431.818 1                     -1529.950          23.000  
R23  22654533.673 1 121186495.300 1       993.407          30.250  
> 2021  5 18  7 21 15.4406722  0 22                     
E13                                                                  24313637.574 1                      -590.350          18.500  
E15  26676460.526 1 140185746.46511     -1579.226          29.250                                                                  
E21  24193957.727 1 127140111.608 1       278.717          31.250    24191838.494 1  94933977.117 1       208.507          29.500  
E26  25212211.204 1 132491139.240 1       636.139          35.250    25210097.967 1  98929836.758 1       475.249          35.500  
G 2  23559161.287 1 123804216.851 1      1169.565          28.750  
G 3  23279748.121 1                     -2914.750          24.500  
G 4  25002636.790 1                      1075.200          24.750  
G 6  21333781.485 1 112109771.391 1       223.008          36.250  
G 9  24389360.652 1 128166964.433 1      1817.190          30.250  
G14  20725037.310 1 108910844.599 1     -1919.567          38.000  
G19  21422604.594 1                      1293.550          20.500  
G28  20325212.503 1 106809737.004 1      -278.114          34.000  
G30  24800459.454 1 130327257.226 1     -2398.603          30.500  
J 1  37434107.562 1 196717518.18811      -147.207          26.500                                                                  
J 2  35918855.749 1 188754907.766 1      -112.280          37.250    35916514.070 1 140944123.110 1       -83.977          32.250  
J 3  39485563.068 1 207498046.514 1       578.753          34.000    39483229.184 1 154940671.75611       432.156          25.250  
R 7  21146992.197 1 113201553.560 1      1061.635          28.250  
R 8  22032004.416 1 117980528.483 1      3528.532          36.500  
R12  20266264.912 1 108258778.930 1     -1470.062          33.250  
R13  22154507.708 1                      2021.000          18.250  
R22  21489256.252 1                      -727.800          21.250  
R23  22654333.086 1 121185500.39111       994.812          31.500  
> 2021  5 18  7 21 16.4406722  0 17                     
E13  24315897.029 1                      -786.600          23.750                                                                  
E15  26676753.642 1 140187325.59611     -1578.999          31.500                                                                  
E21  24193904.283 1 127139833.971 1       277.807          33.250    24191787.148 1  94933769.813 1       207.551          28.500  
E26  25212096.303 1 132490503.946 1       635.755          35.750    25209977.670 1  98929362.390 1       474.762          37.250  
G 2  23558946.255 1 123803048.191 1      1168.900          29.000  
G 6  21333737.635 1 112109549.431 1       222.289          37.000  
G 9  24389025.403 1 128165148.235 1      1816.797          33.500  
G14  20725402.376 1 108912765.362 1     -1920.433          38.250  
G28  20325268.783 1 106810016.415 1      -279.171          35.750  
G30  24800920.454 1 130329656.571 1     -2398.575          33.750  
J 1  37434133.862 1 196717665.62711      -147.019          27.750                                                                  
J 2  35918874.255 1 188755021.146 1      -112.845          37.750    35916536.773 1 140944207.773 1       -84.336          32.750  
J 3  39485440.073 1 207497468.731 1       578.077          32.500    39483116.381 1                       429.600          25.750  
R 7  21146815.838 1 113200493.006 1      1060.900          30.000  
R 8  22031334.598 1 117977000.932 1      3528.164          37.000  
R12  20266560.426 1 108260250.185 1     -1471.007          32.750  
R23  22654149.233 1 121184505.82811       995.644          27.250  
> 2021  5 18  7 21 17.4406722  0 22                     
E13  24316045.506 1                      -790.400          24.000                                                                  
E15  26677063.707 1 140188903.59211     -1577.746          29.250                                                                  
E21  24193852.199 1 127139556.751 1       275.524          33.750    24191734.465 1  94933562.856 1       205.847          29.250  
E26  25211975.566 1 132489868.716 1       633.714          36.500    25209856.933 1  98928888.025 1       473.056          36.250  
G 2  23558728.086 1 123801879.35711      1167.583          31.000  
G 3  23280867.245 1                     -2914.850          27.250  
G 4  25002201.790 1                      1078.150          26.000  
G 6  21333695.744 1 112109328.019 1       219.490          36.250  
G 9  24388657.937 1 128163331.122 1      1816.811          30.750  
G14  20725775.398 1 108914685.851 1     -1921.128          37.750  
G17  21442654.413 1                       545.750          21.000  
G19  21422101.841 1                      1297.150          24.250  
G28  20325326.723 1 106810295.990 1      -280.768          34.750  
G30  24801374.420 1 130332054.162 1     -2396.738          33.500  
J 1  37434161.223 1 196717813.23411      -148.292          28.250                                                                  
J 2  35918899.817 1 188755133.400 1      -112.065          39.500    35916557.538 1 140944291.563 1       -83.614          32.000  
J 3  39485363.106 1 207496891.111 1       575.860          34.250    39483007.636 1 154939801.99911       430.049          27.500  
R 7  21146652.231 1 113199432.09611      1060.598          27.500  
R 8  22030687.127 1 117973472.255 1      3528.934          36.750  
R12  20266820.126 1 108261721.697 1     -1472.793          29.250  
R21  23572181.272 1                     -1534.550          22.750  
R23  22653982.028 1 121183511.60311       991.617          30.500  
> 2021  5 18  7 21 18.4406721  0 21                     
E13  24316178.378 1                      -789.100          25.750    24314057.646 1                      -590.400          18.500  
E21  24193771.619 1 127139125.279 1       276.300          35.500    24191654.484 1  94933240.547 1       206.287          30.000  
E26  25211824.535 1 132489078.813 1       634.629          36.750    25209705.902 1  98928298.166 1       474.009          36.000  
G 2  23558471.528 1 123800555.48811      1168.991          29.000  
G 3  23281370.061 1 122344425.36811     -2914.790          30.000  
G 6  21333632.851 1 112108952.427 1       220.303          39.000  
G 9  24388294.053 1 128161356.437 1      1820.105          29.750  
G14  20726106.733 1 108916449.850 1     -1919.014          38.000  
G17  21442537.558 1                       547.750          25.000  
G19  21421855.476 1                      1297.250          23.000  
G28  20325351.970 1 106810420.350 1      -279.541          35.500  
G30  24801800.489 1 130334292.301 1     -2392.438          32.750  
J 1  37434153.793 1 196717804.57611      -145.430          28.500                                                                  
J 2  35918886.091 1 188755087.716 1      -108.826          38.500    35916549.208 1 140944257.455 1       -81.301          31.500  
J 3  39485217.471 1 207496159.349 1       576.656          34.750    39482868.297 1                       430.350          27.750  
R 7  21146345.308 1                      1060.500          22.500  
R 8  22029991.073 1 117969782.453 1      3532.283          37.250  
R12  20267075.913 1 108263035.203 1     -1471.254          31.500  
R21  23572443.355 1 126140905.73011     -1529.725          31.750  
R22  21489551.011 1                      -730.050          18.500  
R23  22653731.766 1 121182361.97211       991.865          32.250  
> 2021  5 18  7 21 19.4406721  0 21                     
E13  24316321.104 1                      -789.450          27.000                                                                  
E15  26677637.898 1                     -1573.600          27.750                                                                  
E21  24193717.680 1 127138847.053 1       276.772          34.500    24191599.646 1  94933032.844 1       207.122          30.000  
E26  25211701.045 1 132488441.967 1       635.821          37.000    25209584.810 1  98927822.642 1       474.789          35.250  
G 2  23558218.227 1                      1167.350          23.000  
G 3  23281919.605 1 122347336.99311     -2913.813          32.250  
G 6  21333582.211 1 112108730.009 1       221.305          35.750  
G 9  24387942.121 1 128159535.106 1      1819.720          32.000  
G14  20726469.206 1 108918367.541 1     -1919.514          37.000  
G17  21442416.766 1 112680660.26911       548.376          26.250  
G19  21421618.664 1                      1301.850          22.000  
G28  20325403.858 1 106810698.364 1      -279.548          35.750  
G30  24802248.103 1 130336683.584 1     -2393.173          32.000  
J 1  37434157.714 1                      -143.200          25.000                                                                  
J 2  35918908.899 1 188755195.471 1      -109.599          38.250    35916570.218 1 140944337.908 1       -81.817          32.000  
J 3  39485096.979 1 207495580.328 1       578.278          34.250    39482757.998 1 154938822.23411       431.917          27.250  
R 7  21146169.054 1                      1062.700          24.000  
R 8  22029326.757 1 117966249.118 1      3531.346          37.750  
R12  20267355.644 1 108264505.220 1     -1471.660          30.750  
R21  23572720.088 1 126142433.31411     -1529.645          29.000  
R23  22653561.508 1 121181367.591 1       993.829          34.250  
> 2021  5 18  7 21 20.4406721  0 22                     
E13  24316481.858 1                      -789.600          25.750                                                                  
E21  24193664.983 1 127138571.084 1       275.650          35.000    24191548.148 1  94932826.725 1       205.975          29.000  
E26  25211579.995 1 132487806.987 1       634.739          35.000    25209464.659 1  98927348.426 1       474.235          36.000  
G 2  23558025.826 1                      1164.200          23.500  
G 3  23282469.790 1 122350251.06211     -2915.135          29.750  
G 4  25001583.472 1                      1077.600          23.000  
G 6  21333540.006 1 112108509.499 1       220.307          37.250  
G 9  24387607.619 1 128157716.235 1      1818.398          34.500  
G14  20726837.417 1 108920288.196 1     -1921.401          37.250  
G17  21442318.800 1                       544.100          23.750  
G19  21421392.387 1                      1297.500          22.500  
G28  20325450.092 1 106810978.918 1      -281.203          34.500  
G30  24802714.047 1 130339077.760 1     -2394.837          33.000  
J 1  37434207.246 1 196718085.91211      -146.418          28.250                                                                  
J 2  35918929.951 1 188755306.017 1      -111.330          38.000    35916592.169 1 140944420.497 1       -83.177          32.500  
J 3  39484995.415 1 207495002.679 1       577.630          36.000    39482646.241 1                       430.700          27.000  
R 7  21145964.662 1                      1057.950          25.000  
R 8  22028676.573 1 117962718.794 1      3529.507          38.250  
R12  20267633.318 1 108265978.004 1     -1473.388          30.750  
R21  23573046.927 1 126143964.30911     -1531.677          29.250  
R22  21489925.243 1                      -724.600          20.750  
R23  22653414.975 1 121180375.55411       990.560          27.500  
> 2021  5 18  7 21 21.4406721  0 21                     
E13  24316618.330 1                      -790.850          27.250    24314505.992 1                      -586.800          19.250  
E21  24193617.981 1 127138296.498 1       274.745          35.750    24191493.352 1  94932621.751 1       205.592          25.250  
E26  25211465.240 1 132487173.057 1       634.546          38.250    25209342.410 1  98926875.035 1       473.912          36.500  
G 2  23557780.962 1                      1166.650          24.250  
G 3  23283042.459 1 122353168.24711     -2916.287          30.500  
G 4  25001361.092 1 131383038.82811      1076.757          27.250  
G 6  21333499.300 1 112108290.089 1       220.079          38.000  
G 9  24387266.821 1 128155899.536 1      1817.367          31.000  
G14  20727205.628 1 108922211.320 1     -1922.645          38.000  
G17  21442274.197 1                       547.650          22.750  
G19  21421122.640 1                      1296.600          22.750  
G28  20325514.613 1 106811261.520 1      -282.225          34.750  
G30  24803161.103 1 130341474.500 1     -2395.814          34.750  
J 1  37434286.757 1                      -137.650          21.750                                                                  
J 2  35918951.602 1 188755419.082 1      -112.194          39.500    35916614.120 1 140944504.905 1       -83.655          34.000  
J 3  39484872.266 1 207494425.617 1       577.761          33.500    39482536.283 1 154937952.88011       431.580          28.500  
R 7  21145741.382 1                      1059.900          26.000  
R 8  22028016.196 1 117959191.192 1      3528.377          36.500  
R12  20267889.406 1 108267453.384 1     -1475.161          30.250  
R21  23573332.096 1 126145497.13411     -1531.754          30.500  
R23  22653201.589 1 121179382.94111       993.261          34.500  
> 2021  5 18  7 21 22.4406720  0 22                     
E13  24316736.794 1                      -788.800          24.250                                                                  
E15  26678505.975 1                     -1575.600          24.500                                                                  
E21  24193533.486 1 127137861.806 1       276.724          34.500    24191415.752 1  94932297.101 1       206.969          30.000  
E26  25211303.698 1 132486378.551 1       636.553          34.750    25209191.660 1  98926281.779 1       475.397          35.500  
G 2  23557535.178 1 123795681.96211      1169.686          25.750  
G 3  23283557.849 1 122355924.19011     -2914.402          28.500  
G 4  25001095.822 1 131381801.87911      1079.904          27.500  
G 6  21333436.390 1 112107910.376 1       221.881          39.500  
G 9  24386880.434 1 128153921.670 1      1819.903          34.000  
G14  20727541.142 1 108923973.859 1     -1920.840          37.250  
G17  21442219.381 1                       545.150          21.500  
G28  20325530.848 1 106811383.838 1      -280.503          35.500  
G30  24803586.255 1 130343709.440 1     -2393.281          32.750  
J 1  37434223.547 1                      -137.800          24.250                                                                  
J 2  35918942.654 1 188755370.811 1      -110.020          39.250    35916601.874 1 140944468.864 1       -82.136          30.500  
J 3  39484735.907 1 207493687.919 1       580.193          34.500    39482397.226 1                       434.350          28.500  
R 7  21145508.490 1                      1060.800          21.500  
R 8  22027318.325 1 117955499.315 1      3530.611          36.500  
R12  20268155.968 1 108268765.763 1     -1473.420          32.250  
R13  22151784.959 1                      2025.150          16.000  
R21  23573550.391 1 126146866.34511     -1528.512          28.750  
R23  22652982.187 1 121178226.896 1       995.543          38.500  
> 2021  5 18  7 21 23.4406720  0 19                     
E13  24316886.818 1                      -790.300          23.000                                                                  
E21  24193479.051 1 127137587.822 1       275.275          35.000    24191362.516 1  94932092.500 1       205.664          29.500  
E26  25211192.603 1 132485744.445 1       635.664          37.000    25209072.470 1  98925808.200 1       474.739          36.000  
G 2  23557306.864 1 123794514.99811      1168.209          28.000  
G 6  21333391.548 1 112107690.967 1       220.820          39.000  
G 9  24386529.205 1 128152105.040 1      1817.847          35.500  
G14  20727906.717 1 108925898.002 1     -1923.107          37.500  
G17  21441984.471 1 112678388.34411       548.511          27.000  
G19  21420585.885 1                      1300.150          21.750  
G28  20325582.240 1 106811667.339 1      -282.428          35.500  
G30  24804048.662 1 130346105.940 1     -2395.286          32.500  
J 1  37434249.157 1 196718307.03911      -146.013          26.250                                                                  
J 2  35918962.867 1 188755484.166 1      -112.211          39.500    35916625.086 1 140944553.592 1       -83.822          30.750  
J 3  39484629.308 1 207493110.104 1       579.292          34.000    39482287.929 1 154936977.53011       432.802          28.000  
R 7  21145315.251 1                      1056.650          22.000  
R 8  22026669.102 1 117951972.158 1      3528.194          36.500  
R12  20268446.295 1 108270242.322 1     -1475.702          31.500  
R21  23573848.512 1                     -1531.050          26.250  
R23  22652801.840 1 121177233.764 1       994.898          36.500  
> 2021  5 18  7 21 24.4406720  0 21                     
E13  24317042.994 1                      -790.850          23.250    24314930.656 1                      -586.500          19.750  
E21  24193429.870 1 127137313.255 1       273.698          34.750    24191308.238 1  94931887.565 1       204.794          28.500  
E26  25211068.773 1 132485109.348 1       634.734          36.250    25208952.238 1  98925334.027 1       474.638          37.250  
G 2  23557110.784 1                      1171.200          25.500  
G 3  23284647.107 1                     -2918.050          26.750  
G 6  21333346.864 1 112107470.955 1       219.469          37.750  
G 9  24386194.322 1 128150287.578 1      1817.425          35.500  
G14  20728273.947 1 108927821.748 1     -1924.015          38.000  
G17  21441896.916 1                       547.050          24.500  
G19  21420367.321 1                      1294.550          22.000  
G28  20325642.783 1 106811950.533 1      -283.651          34.750  
G30  24804494.738 1 130348501.381 1     -2395.280          33.500  
J 1  37434321.091 1                      -146.150          22.000                                                                  
J 2  35918987.435 1 188755596.761 1      -112.512          38.750    35916647.855 1 140944637.632 1       -84.056          31.750  
J 3  39484519.868 1 207492531.216 1       578.560          33.250    39482178.489 1                       432.500          27.000  
R 7  21145155.446 1                      1054.450          25.500  
R 8  22026001.149 1 117948444.333 1      3528.042          36.250  
R12  20268720.589 1 108271718.694 1     -1476.739          32.000  
R21  23574126.405 1 126149911.78611     -1531.591          31.250  
R22  21490344.577 1                      -726.800          17.500  
R23  22652613.255 1 121176239.66111       993.583          31.500  
> 2021  5 18  7 21 25.4406720  0 22                     
E13  24317181.187 1                      -789.450          23.500                                                                  
E15  26679412.948 1                     -1575.400          27.500                                                                  
E21  24193377.694 1 127137039.583 1       273.810          33.500    24191255.763 1  94931683.260 1       205.022          30.500  
E26  25210939.551 1 132484475.013 1       634.576          30.750    25208830.511 1  98924860.220 1       474.276          37.500  
G 2  23556886.528 1                      1169.550          23.500  
G 3  23285203.510 1 122364569.60111     -2916.520          29.000  
G 6  21333305.481 1 112107251.709 1       219.506          37.750  
G 9  24385845.052 1 128148469.75611      1819.650          33.000  
G14  20728634.286 1 108929745.746 1     -1923.285          39.000  
G17  21441789.279 1                       551.250          23.250  
G19  21420108.589 1                      1300.050          23.500  
G28  20325688.939 1 106812234.334 1      -283.274          32.500  
G30  24804952.510 1 130350895.631 1     -2392.545          33.750  
J 1  37434319.581 1 196718676.98711      -147.369          28.000                                                                  
J 2  35919006.311 1 188755708.782 1      -110.744          37.750    35916668.829 1 140944721.304 1       -82.838          32.750  
J 3  39484420.026 1 207491952.949 1       578.693          33.500    39482067.854 1 154936114.40411       432.326          28.250  
R 7  21144876.628 1 113190179.63911      1055.487          27.500  
R 8  22025343.093 1 117944915.948 1      3529.595          37.000  
R12  20268987.393 1 108273195.34011     -1476.674          31.500  
R21  23574419.290 1 126151443.120 1     -1529.915          34.000  
R22  21490507.652 1                      -720.550          22.000  
R23  22652424.374 1 121175246.08911       994.758          31.750  
> 2021  5 18  7 21 26.4406720  0 19                     
E21  24193321.072 1 127136766.288 1       272.692          34.000    24191202.438 1  94931479.092 1       203.801          29.500  
E26  25210828.666 1 132483840.401 1       634.152          37.000    25208708.833 1  98924386.341 1       473.647          36.750  
G 2  23556664.120 1                      1171.750          24.750  
G 3  23285763.860 1 122367485.873 1     -2916.144          31.500  
G 6  21333263.848 1 112107032.859 1       218.339          39.250  
G 9  24385503.327 1 128146647.99411      1820.142          31.500  
G14  20728999.771 1 108931669.089 1     -1923.475          38.500  
G17  21441690.686 1                       546.200          24.250  
G19  21419834.316 1                      1300.900          23.500  
G28  20325745.938 1 106812518.139 1      -284.155          32.250  
G30  24805410.931 1 130353287.355 1     -2391.005          34.750  
J 1  37434352.296 1                      -146.050          25.000                                                                  
J 2  35919029.433 1 188755819.274 1      -110.305          38.000    35916688.953 1 140944803.788 1       -82.248          32.500  
J 3  39484305.243 1 207491374.794 1       577.671          33.250    39481957.869 1                       429.500          29.500  
R 7  21144727.369 1 113189124.47111      1054.590          32.500  
R 8  22024687.186 1 117941386.053 1      3530.238          37.500  
R12  20269260.842 1 108274672.72111     -1477.320          31.000  
R21  23574705.330 1 126152972.17111     -1529.957          27.500  
R23  22652238.541 1 121174253.479 1       992.677          38.500  
> 2021  5 18  7 21 27.4406719  0 22                     
E13  24317472.937 1                      -785.450          22.250    24315348.908 1                      -585.700          19.000  
E15  26679978.409 1                     -1573.600          27.000                                                                  
E21  24193239.243 1 127136336.625 1       272.157          34.500    24191122.108 1  94931158.201 1       203.062          30.500  
E26  25210677.884 1 132483049.051 1       633.721          37.750    25208557.452 1  98923795.366 1       473.674          36.000  
G 2  23556397.019 1 123789700.87911      1165.851          26.750  
G 3  23286288.511 1 122370245.51611     -2916.761          27.000  
G 6  21333188.614 1 112106657.561 1       217.791          39.500  
G 9  24385140.592 1 128144671.12811      1819.554          31.750  
G14  20729338.851 1 108933435.453 1     -1923.877          38.750  
G17  21441528.812 1                       549.300          22.000  
G19  21419614.883 1                      1299.650          23.500  
G28  20325777.431 1 106812645.357 1      -284.751          32.250  
G30  24805833.952 1 130355520.450 1     -2390.042          34.750  
J 1  37434400.577 1                      -145.350          21.500    37432008.533 1                      -108.900          20.000  
J 2  35919021.652 1 188755771.901 1      -109.886          37.000    35916679.674 1 140944768.451 1       -82.006          30.500  
J 3  39484167.054 1 207490640.232 1       577.038          33.500    39481816.980 1 154935130.09511       431.209          29.000  
R 7  21144441.981 1 113187910.01611      1053.396          35.000  
R 8  22023989.283 1 117937695.265 1      3530.442          36.500  
R12  20269501.290 1 108275990.674 1     -1478.125          31.000  
R21  23575005.137 1                     -1530.200          25.750  
R22  21490764.627 1                      -729.450          19.750  
R23  22652022.405 1 121173101.087 1       991.860          38.750  
> 2021  5 18  7 21 28.4406719  0 23                     
E13  24317620.559 1                      -789.100          25.500                                                                  
E15  26680283.721 1                     -1572.050          33.000                                                                  
E21  24193189.601 1 127136065.191 1       272.451          35.750    24191071.267 1  94930955.500 1       203.321          29.750  
E26  25210552.695 1 132482415.529 1       634.628          35.750    25208438.558 1  98923322.320 1       473.923          35.500  
G 2  23556197.181 1                      1170.500          24.750  
G 3  23286845.350 1 122373162.84811     -2917.679          31.500  
G 4  24999893.631 1                      1076.550          23.000  
G 6  21333147.966 1 112106440.342 1       218.489          38.750  
G 9  24384781.564 1 128142852.660 1      1818.922          32.500  
G14  20729709.218 1 108935360.466 1     -1924.654          39.000  
G17  21441427.606 1                       546.250          24.750  
G19  21419302.623 1 112559193.99411      1297.183          28.000  
G28  20325818.626 1 106812931.162 1      -285.065          32.250  
G30  24806288.561 1 130357911.586 1     -2391.065          34.000  
J 1  37434391.407 1                      -148.000          23.000    37432035.938 1 146891348.58311      -108.451          23.500  
J 2  35919036.466 1 188755882.859 1      -110.664          36.250    35916701.082 1 140944851.325 1       -82.662          32.000  
J 3  39484043.663 1 207490063.283 1       578.526          34.250    39481707.080 1                       430.450          28.000  
R 7  21144245.740 1 113186858.637 1      1052.163          36.250  
R 8  22023338.857 1 117934165.963 1      3529.380          35.500  
R12  20269803.304 1 108277469.87211     -1478.642          29.000  
R13  22149571.268 1                      2016.350          16.500  
R21  23575295.760 1 126156169.45311     -1528.042          27.750  
R23  22651834.858 1 121172109.558 1       993.161          38.250  
> 2021  5 18  7 21 29.4406719  0 20                     
E13  24317755.130 1                      -790.050          23.250    24315650.587 1                      -589.900          19.750  
E15  26680584.677 1 140207418.43111     -1570.067          33.000                                                                  
E21  24193133.804 1 127135792.356 1       272.535          35.000    24191019.068 1                       202.550          29.000  
E26  25210429.744 1 132481780.466 1       634.684          36.750    25208316.507 1  98922848.034 1       474.562          35.250  
G 2  23555952.815 1 123787367.53011      1166.915          31.250  
G 3  23287421.216 1 122376080.76111     -2919.388          32.000  
G 6  21333110.157 1 112106221.290 1       219.028          38.500  
G 9  24384437.367 1 128141033.889 1      1818.146          31.000  
G14  20730075.529 1 108937285.604 1     -1926.024          39.500  
G19  21419062.154 1 112557895.81011      1298.110          26.250  
G28  20325887.543 1 106813216.365 1      -285.776          32.750  
G30  24806746.309 1 130360303.613 1     -2393.254          35.500  
J 1  37434409.959 1 196719151.46211      -147.821          25.750    37432065.282 1                      -113.350          27.250  
J 2  35919063.711 1 188755994.295 1      -112.379          38.500    35916722.332 1 140944934.538 1       -83.899          31.000  
J 3  39483937.800 1 207489483.802 1       579.867          35.000    39481597.620 1 154934268.58411       433.093          28.500  
R 7  21144046.043 1 113185806.353 1      1051.874          35.000  
R 8  22022682.276 1 117930637.341 1      3527.604          36.000  
R12  20270079.678 1 108278947.92311     -1480.163          29.250  
R21  23575517.571 1 126157356.41311     -1530.757          28.000  
R23  22651650.151 1 121171115.333 1       994.270          37.250  
> 2021  5 18  7 21 30.4406719  0 23                     
E13  24317917.761 1                      -791.400          27.000    24315797.929 1                      -588.700          23.500  
E15  26680881.915 1 140208985.27211     -1570.202          31.500                                                                  
E21  24193085.980 1 127135519.694 1       271.147          34.500    24190966.148 1  94930546.29611       202.717          29.000  
E26  25210310.570 1 132481145.126 1       633.958          35.250    25208196.134 1  98922373.593 1       473.436          35.750  
G 2  23555729.913 1 123786200.587 1      1165.847          31.250  
G 3  23287971.478 1 122379000.05611     -2918.712          31.250  
G 6  21333067.730 1 112106002.177 1       217.457          38.500  
G 9  24384072.063 1 128139215.28711      1818.279          26.000  
G14  20730440.820 1 108939211.254 1     -1926.247          38.750  
G17  21441265.526 1                       548.700          22.000  
G19  21418805.974 1 112556597.03111      1296.629          27.500  
G28  20325932.655 1 106813501.966 1      -286.715          33.000  
G30  24807200.937 1 130362695.753 1     -2391.407          35.250  
J 1  37434433.186 1                      -145.950          23.500    37432090.308 1                      -110.250          21.750  
J 2  35919086.639 1 188756105.947 1      -111.503          38.500    35916743.761 1 140945017.926 1       -83.261          32.000  
J 3  39483834.515 1 207488903.760 1       578.258          33.500    39481486.541 1                       430.900          27.500  
R 7  21143859.416 1 113184754.42511      1050.201          31.500  
R 8  22022019.578 1 117927109.048 1      3528.465          34.750  
R12  20270317.257 1 108280427.53111     -1480.773          26.500  
R13  22148794.614 1                      2011.850          20.500  
R21  23575814.209 1 126158886.47511     -1529.333          27.750  
R22  21491216.945 1                      -724.950          19.750  
R23  22651476.414 1 121170120.755 1       992.612          33.000  
> 2021  5 18  7 21 31.4406719  0 22                     
E13  24318061.144 1                      -792.350          23.750    24315961.997 1                      -590.400          22.500  
E15  26681184.188 1 140210551.82311     -1576.510          30.750                                                                  
E21  24193034.198 1 127135247.975 1       271.005          34.500    24190913.766 1  94930343.260 1       202.388          28.500  
E26  25210194.633 1 132480510.306 1       634.267          33.750    25208074.500 1  98921899.585 1       473.693          34.000  
G 2  23555501.253 1 123785033.198 1      1166.982          30.750  
G 3  23288498.595 1 122381916.15511     -2917.797          28.250  
G 6  21333022.843 1 112105784.167 1       217.383          37.500  
G 9  24383751.667 1 128137395.43011      1819.804          27.500  
G14  20730805.749 1 108941136.098 1     -1925.272          38.500  
G17  21441111.814 1                       545.100          23.750  
G19  21418585.709 1 112555298.70511      1297.286          27.250  
G28  20325995.693 1 106813787.815 1      -286.492          33.250  
G30  24807652.507 1 130365084.249 1     -2388.218          32.500  
J 1  37434483.633 1                      -146.200          25.250                                                                  
J 2  35919102.910 1 188756215.446 1      -109.586          38.000    35916765.128 1 140945099.698 1       -81.939          29.750  
J 3  39483729.370 1 207488324.991 1       578.182          33.250    39481379.297 1 154933412.24311       431.797          28.500  
R 7  21143664.033 1 113183703.501 1      1050.208          32.000  
R 8  22021358.618 1 117923578.419 1      3530.405          33.000  
R12  20270627.923 1 108281907.76011     -1481.915          28.500  
R13  22148362.095 1                      2013.800          21.750  
R21  23576161.750 1                     -1532.450          25.500  
R23  22651298.719 1 121169127.73111       991.954          31.750  
> 2021  5 18  7 21 32.4406718  0 22                     
E13  24318200.933 1                      -787.000          22.000                                                                  
E15  26681448.391 1                     -1568.750          31.750                                                                  
E21  24192952.141 1 127134818.651 1       272.891          36.000    24190833.208 1  94930022.664 1       204.047          29.750  
E26  25210035.529 1 132479717.57111       636.442          29.250    25207922.292 1  98921307.621 1       475.303          32.750  
G 2  23555249.513 1 123783708.51711      1168.248          28.000  
G 3  23289032.012 1 122384677.83911     -2917.828          30.250  
G 6  21332951.878 1 112105408.320 1       219.745          37.000  
G 9  24383459.156 1                      1818.650          23.000  
G14  20731139.504 1 108942903.640 1     -1924.874          38.000  
G17  21441011.470 1                       545.200          23.500  
G19  21418283.004 1 112553843.02511      1300.749          26.500  
G28  20326005.073 1 106813916.261 1      -285.295          32.750  
G30  24808083.094 1 130367315.01511     -2388.543          33.000  
J 1  37434461.235 1 196719421.02011      -145.981          26.750    37432113.560 1                      -114.450          20.250  
J 2  35919096.400 1 188756167.354 1      -109.472          37.750    35916754.122 1 140945063.70611       -81.743          29.000  
J 3  39483574.463 1 207487587.880 1       581.328          33.250    39481237.881 1                       436.250          27.750  
R 7  21143423.685 1 113182492.240 1      1051.626          32.500  
R 8  22020684.770 1 117919887.486 1      3530.052          32.000  
R12  20270852.554 1 108283228.16911     -1480.067          29.000  
R13  22148006.027 1                      2011.500          21.500  
R21  23576354.902 1 126161837.20011     -1526.955          29.500  
R23  22651079.957 1 121167974.26311       994.290          28.000  
> 2021  5 18  7 21 33.4406718  0 23                     
E13  24318340.891 1                      -788.100          25.000    24316220.459 1                      -590.100          19.750  
E15  26681748.138 1 140213533.31011     -1574.891          34.500                                                                  
E21  24192900.531 1 127134546.326 1       270.404          34.000    24190780.998 1  94929819.275 1       202.234          31.000  
E26  25209918.864 1 132479081.48111       634.580          30.750    25207802.629 1  98920832.622 1       474.010          34.750  
G 2  23555029.120 1 123782541.010 1      1165.845          29.750  
G 3  23289575.790 1 122387595.86111     -2919.592          26.000  
G 4  24998822.103 1                      1075.500          25.000  
G 6  21332909.862 1 112105188.913 1       217.952          36.750  
G 9  24383135.634 1 128134241.68811      1820.248          26.500  
G14  20731509.103 1 108944830.236 1     -1928.513          38.000  
G17  21440939.174 1 112672895.37811       549.055          27.000  
G19  21418027.536 1 112552541.63411      1299.978          27.500  
G28  20326061.088 1 106814202.662 1      -288.181          33.500  
G30  24808546.528 1 130369706.172 1     -2392.956          33.000  
J 1  37434483.974 1 196719567.40911      -148.437          29.000    37432141.695 1 146891763.69411      -110.566          23.000  
J 2  35919114.042 1 188756278.822 1      -113.310          37.750    35916776.561 1 140945146.954 1       -84.602          29.000  
J 3  39483471.289 1 207487006.277 1       580.321          33.750    39481124.214 1 154932411.45011       433.553          27.500  
R 7  21143228.475 1 113181441.444 1      1048.870          35.000  
R 8  22020011.091 1 117916359.224 1      3526.112          33.750  
R12  20271175.985 1                     -1487.250          25.000  
R21  23576633.964 1 126163366.11011     -1530.124          30.000  
R22  21491562.429 1                      -729.600          19.000  
R23  22650864.361 1 121166979.43411       994.484          30.500  
> 2021  5 18  7 21 34.4406718  0 22                     
E13  24318513.071 1                      -790.600          26.000    24316370.455 1                      -596.250          22.250  
E21  24192848.767 1 127134276.180 1       268.516          36.000    24190729.534 1  94929617.61411       200.861          29.500  
E26  25209799.646 1 132478447.190 1       632.577          32.000    25207681.912 1  98920358.933 1       472.601          35.000  
G 2  23554828.059 1 123781374.68711      1164.654          30.000  
G 3  23290169.778 1 122390514.20111     -2920.137          28.500  
G 4  24998590.463 1 131368478.88011      1077.793          27.250  
G 6  21332870.988 1 112104971.604 1       215.678          37.250  
G 9  24382688.144 1 128131890.58111      1816.907          26.750  
G14  20731874.949 1 108946758.423 1     -1929.793          39.000  
G17  21440774.988 1                       547.600          24.750  
G19  21417800.992 1 112551243.94011      1295.477          28.250  
G28  20326125.943 1 106814491.119 1      -290.078          33.750  
G30  24808997.216 1 130372097.48011     -2392.458          30.500  
J 1  37434515.252 1 196719716.20111      -149.391          26.750                                                                  
J 2  35919141.423 1 188756391.193 1      -113.635          38.000    35916796.147 1 140945230.942 1       -84.827          29.500  
J 3  39483352.371 1 207486426.532 1       578.356          35.000    39481016.389 1                       432.650          29.000  
R 7  21143042.704 1 113180392.860 1      1046.818          35.250  
R 8  22019360.641 1 117912831.95311      3525.638          31.500  
R12  20271412.021 1                     -1483.900          26.500  
R13  22147225.722 1                      2007.800          20.500  
R21  23576923.063 1 126164895.46411     -1530.182          27.500  
R23  22650713.964 1 121165986.96211       990.886          29.000  
> 2021  5 18  7 21 35.4406718  0 21                     
E13  24318632.133 1                      -791.700          25.250                                                                  
E15  26682334.976 1                     -1576.950          27.250                                                                  
E21  24192795.748 1 127134009.772 1       268.193          34.250    24190679.213 1  94929418.662 1       200.274          30.750  
E26  25209681.272 1 132477816.331 1       632.692          32.250    25207562.040 1  98919887.828 1       472.787          34.750  
G 2  23554598.462 1 123780212.915 1      1163.935          28.500  
G 3  23290744.225 1 122393438.55611     -2922.501          30.250  
G 6  21332829.061 1 112104757.706 1       216.083          38.000  
G 9  24382368.010 1 128130076.41511      1815.171          28.750  
G14  20732243.738 1 108948691.088 1     -1931.435          39.000  
G17  21440738.457 1                       545.150          21.500  
G19  21417542.615 1 112549949.15611      1297.149          26.000  
G28  20326175.753 1 106814783.721 1      -291.058          32.500  
G30  24809457.142 1 130374493.117 1     -2394.777          31.000  
J 1  37434562.064 1 196719867.474 1      -149.796          31.250                                                                  
J 2  35919155.558 1 188756507.788 1      -115.437          37.000    35916820.174 1 140945316.99111       -85.084          29.500  
J 3  39483240.293 1 207485849.793 1       579.267          33.500    39480904.310 1 154931547.83911       432.728          28.500  
R 7  21142787.624 1 113178996.639 1      1045.926          33.000  
R 8  22018694.846 1 117909309.137 1      3523.863          34.500  
R12  20271719.352 1 108287885.73311     -1486.636          28.000  
R21  23577256.477 1                     -1530.450          22.500  
R23  22650519.743 1 121164996.71511       992.889          29.250  
> 2021  5 18  7 21 36.4406718  0 21                     
E13  24318799.475 1                      -790.750          24.250    24316668.550 1                      -587.500          20.500  
E21  24192748.738 1 127133740.294 1       268.139          34.500    24190628.006 1  94929217.36511       200.395          30.250  
E26  25209562.912 1 132477181.877 1       633.078          32.750    25207441.581 1  98919414.087 1       473.033          36.000  
G 2  23554400.058 1                      1166.550          23.500  
G 3  23291283.010 1 122396361.00211     -2924.037          29.500  
G 6  21332791.645 1 112104540.374 1       215.931          38.250  
G 9  24382038.895 1 128128259.30111      1816.967          30.000  
G14  20732612.541 1 108950621.244 1     -1931.062          38.500  
G17  21440584.122 1                       546.300          22.500  
G19  21417298.942 1 112548650.08211      1297.061          26.750  
G28  20326232.472 1 106815073.497 1      -290.935          33.000  
G30  24809904.790 1 130376886.124 1     -2393.069          31.750  
J 1  37434577.711 1 196720015.92711      -149.855          30.750    37432231.535 1                      -114.100          20.500  
J 2  35919172.404 1 188756621.876 1      -114.459          38.000    35916842.117 1 140945402.120 1       -85.483          30.000  
J 3  39483132.126 1 207485268.925 1       579.563          33.500    39480796.743 1 154931114.024 1       432.780          30.000  
R 7  21142649.778 1 113178259.521 1      1045.536          34.250  
R 8  22018023.969 1 117905783.804 1      3524.832          33.250  
R12  20271977.532 1                     -1485.850          26.250  
R21  23577548.832 1                     -1530.500          26.500  
R22  21491937.371 1                      -727.650          18.000  
R23  22650342.024 1 121164003.11411       993.183          29.000  
> 2021  5 18  7 21 37.4406717  0 21                     
E13  24318917.403 1                      -785.650          26.750    24316789.476 1                      -588.900          23.250  
E15  26682917.640 1                     -1575.500          25.500                                                                  
E21  24192665.206 1 127133316.704 1       268.961          35.750    24190545.973 1  94928901.008 1       201.127          30.250  
E26  25209409.528 1 132476393.13311       634.204          31.500    25207291.794 1  98918825.046 1       473.958          35.500  
G 2  23554123.759 1 123777755.24511      1164.721          28.250  
G 3  23291802.960 1 122399129.63911     -2920.732          35.750  
G 6  21332718.006 1 112104169.083 1       216.667          38.500  
G 9  24381679.254 1 128126588.69411      1820.053          30.000  
G14  20732945.720 1 108952396.479 1     -1929.397          40.000  
G17  21440460.417 1                       552.150          22.750  
G19  21417015.148 1 112547197.98311      1297.725          29.000  
G28  20326261.661 1 106815208.975 1      -289.870          35.000  
G30  24810336.001 1 130379122.371 1     -2389.461          32.250  
J 1  37434563.430 1 196720010.32211      -149.290          28.500    37432228.647 1                      -111.400          21.750  
J 2  35919174.612 1 188756580.046 1      -111.507          39.500    35916833.233 1 140945370.987 1       -83.311          29.000  
J 3  39482988.935 1 207484533.955 1       580.313          35.500    39480655.650 1 154930565.280 1       433.425          27.500  
R 7  21142436.435 1 113177055.547 1      1046.472          34.750  
R 8  22017349.845 1 117902099.635 1      3527.855          33.250  
R12  20272239.360 1                     -1483.950          26.250  
R21  23577755.499 1 126169331.35111     -1527.637          35.000  
R23  22650137.975 1 121162850.76611       994.413          27.000  
> 2021  5 18  7 21 38.4406717  0 23                     
E13  24319082.951 1                      -789.050          26.000    24316937.636 1  95424885.43511      -588.392          23.500  
E21  24192614.903 1 127133044.105 1       269.601          36.250    24190495.070 1  94928697.488 1       201.044          30.000  
E26  25209288.474 1 132475754.964 1       635.039          35.000    25207170.141 1  98918348.517 1       474.458          35.000  
G 2  23553919.362 1                      1164.300          25.250  
G 3  23292367.531 1 122402046.37211     -2920.634          32.750  
G 6  21332673.998 1 112103948.755 1       217.390          38.750  
G 9  24381311.770 1 128124763.73411      1823.268          26.250  
G14  20733317.524 1 108954321.910 1     -1928.508          40.500  
G17  21440330.669 1 112669697.30411       547.396          27.750  
G19  21416765.183 1 112545896.65511      1298.712          27.250  
G28  20326303.994 1 106815495.173 1      -289.345          34.500  
G30  24810789.049 1 130381507.170 1     -2387.771          33.250  
J 1  37434594.071 1 196720155.28411      -146.674          25.750                                                                  
J 2  35919193.261 1 188756687.665 1      -110.489          38.000    35916853.981 1 140945451.282 1       -82.506          30.750  
J 3  39482874.476 1 207483949.947 1       581.408          35.000    39480542.990 1                       434.250          27.000  
R 6  23065407.852 1                     -2089.050          14.500  
R 7  21142225.143 1 113176005.677 1      1046.930          36.250  
R 8  22016682.869 1 117898567.734 1      3528.956          32.000  
R12  20272477.157 1 108291933.25211     -1485.569          27.000  
R13  22145777.099 1                      2003.750          18.500  
R21  23578044.261 1 126170855.401 1     -1526.754          38.000  
R22  21492171.980 1                      -729.650          20.000  
R23  22649950.367 1 121161853.04711       994.725          30.000  
> 2021  5 18  7 21 39.4406717  0 21                     
E13                                                                  24317089.218 1                      -585.350          21.500  
E15  26683520.172 1                     -1572.050          28.250                                                                  
E21  24192563.525 1 127132776.704 1       268.275          36.500    24190442.793 1  94928497.820 1       200.386          28.000  
E26  25209161.549 1 132475121.720 1       634.134          34.750    25207050.710 1  98917875.711 1       473.479          33.500  
G 2  23553672.220 1 123775382.28811      1166.287          29.250  
G 3  23292895.353 1 122404969.59911     -2921.643          31.250  
G 6  21332632.514 1 112103733.583 1       216.133          37.500  
G 9  24380954.305 1 128122943.16611      1821.626          30.000  
G14  20733681.959 1 108956252.170 1     -1928.493          40.500  
G17  21440246.315 1                       550.500          25.000  
G19  21416534.530 1                      1292.850          25.000  
G28  20326369.835 1 106815786.489 1      -289.987          34.500  
G30  24811232.929 1 130383895.759 1     -2385.804          33.750  
J 1  37434646.422 1                      -150.950          24.500                                                                  
J 2  35919217.731 1 188756799.428 1      -109.429          39.250    35916876.352 1 140945534.780 1       -81.705          29.250  
J 3  39482774.233 1 207483370.357 1       580.624          35.250    39480435.252 1 154929707.26511       433.667          27.500  
R 7  21142037.061 1 113174960.85011      1046.145          34.000  
R 8  22016030.408 1 117895040.185 1      3530.173          33.500  
R12  20272764.546 1 108293420.29611     -1486.507          27.500  
R21  23578329.850 1 126172383.451 1     -1525.254          35.250  
R23  22649726.009 1 121160860.74711       993.167          32.750  
> 2021  5 18  7 21 40.4406717  0 23                     
E13  24319380.202 1                      -789.300          21.500                                                                  
E15  26683814.239 1 140224390.25411     -1564.206          30.500                                                                  
E21  24192513.730 1 127132507.099 1       269.538          35.500    24190390.600 1  94928296.494 1       201.575          30.000  
E26  25209049.697 1 132474486.037 1       635.726          38.000    25206928.965 1  98917401.009 1       474.957          36.250  
G 2  23553437.753 1 123774214.420 1      1167.657          34.000  
G 3  23293463.130 1 122407886.87911     -2916.300          36.250  
G 6  21332594.411 1 112103516.315 1       217.127          39.500  
G 9  24380590.627 1 128121118.38011      1825.724          28.250  
G14  20734048.276 1 108958178.554 1     -1925.684          41.000  
G17  21440113.178 1 112668554.21411       547.126          26.750  
G19  21416329.743 1                      1304.150          25.500  
G28  20326422.869 1 106816074.838 1      -288.099          34.750  
G30  24811690.383 1 130386278.123 1     -2380.821          32.500  
J 1  37434638.598 1 196720352.78311      -141.323          25.750                                                                  
J 2  35919234.790 1 188756906.224 1      -105.555          40.250    35916896.409 1 140945614.434 1       -78.772          33.500  
J 3  39482667.477 1 207482788.440 1       581.887          35.000    39480325.199 1                       435.350          27.000  
R 7  21141836.170 1 113173913.21211      1047.801          36.500  
R 8  22015368.137 1 117891507.261 1      3534.372          37.750  
R12  20273054.715 1 108294905.432 1     -1483.787          33.500  
R13  22144941.135 1                      2005.850          20.500  
R21  23578622.418 1 126173905.26411     -1520.621          37.250  
R22  21492529.790 1                      -723.700          20.000  
R23  22649551.201 1 121159866.602 1       994.532          35.000  
> 2021  5 18  7 21 41.4406716  0 21                     
E13  24319480.955 1                      -788.000          26.500                                                                  
E15  26684074.781 1 140225801.37311     -1570.178          32.000                                                                  
E21  24192428.612 1 127132082.107 1       265.567          35.000    24190312.077 1  94927979.039 1       198.386          30.000  
E26  25208897.425 1 132473694.555 1       632.151          36.500    25206778.492 1  98916809.989 1       471.889          36.500  
G 2  23553186.250 1 123772890.861 1      1163.745          36.500  
G 3  23293994.385 1 122410647.188 1     -2920.375          35.750  
G 6  21332521.284 1 112103143.695 1       213.140          39.500  
G 9  24380223.404 1 128119136.71011      1823.054          26.000  
G14  20734387.364 1 108959948.411 1     -1929.848          38.750  
G17  21439984.289 1 112667849.85611       545.891          26.500  
G19  21416004.490 1                      1292.250          25.250  
G28  20326444.477 1 106816207.318 1      -292.278          34.750  
G30  24812120.008 1 130388502.055 1     -2383.842          31.750  
J 1  37434652.411 1 196720338.07811      -144.061          27.250    37432311.931 1                      -111.800          17.000  
J 2  35919232.714 1 188756855.451 1      -109.401          40.500    35916886.838 1 140945576.559 1       -81.671          33.500  
J 3  39482518.802 1 207482050.726 1       578.381          34.000    39480184.918 1 154928724.88311       432.058          27.000  
R 7  21141605.353 1 113172707.192 1      1043.374          37.000  
R 8  22014683.733 1 117887813.720 1      3530.386          37.250  
R12  20273306.264 1 108296231.044 1     -1488.299          34.500  
R21  23578873.067 1 126175266.818 1     -1524.557          41.250  
R23  22649342.868 1 121158713.778 1       990.676          34.250  
> 2021  5 18  7 21 42.4406716  0 21                     
E13  24319635.740 1                      -794.600          26.000                                                                  
E21  24192381.336 1 127131819.227 1       262.508          34.750    24190262.403 1  94927782.744 1       196.076          30.750  
E26  25208774.302 1 132473064.881 1       629.453          36.000    25206658.667 1  98916339.765 1       470.106          36.750  
G 2  23552961.797 1 123771729.855 1      1160.522          34.750  
G 3  23294548.793 1 122413571.34511     -2925.976          34.500  
G 6  21332480.304 1 112102932.668 1       211.014          40.250  
G 9  24379843.359 1 128116941.29111      1816.837          28.500  
G14  20734755.900 1 108961882.193 1     -1935.003          39.500  
G17  21439935.515 1                       539.800          25.000  
G19  21415782.136 1                      1294.700          24.000  
G28  20326501.229 1 106816502.932 1      -296.386          35.250  
G30  24812563.193 1 130390890.85811     -2390.393          31.500  
J 1  37434677.985 1 196720486.896 1      -149.989          28.500                                                                  
J 2  35919251.093 1 188756969.004 1      -115.042          41.750    35916908.815 1 140945661.335 1       -85.916          34.000  
J 3  39482414.866 1 207481474.193 1       576.875          35.000    39480073.787 1                       428.000          26.750  
R 6  23066859.419 1                     -2089.450          17.500  
R 7  21141411.179 1 113171667.125 1      1039.417          38.000  
R 8  22014019.785 1 117884287.892 1      3524.103          37.500  
R12  20273593.557 1 108297722.836 1     -1492.754          34.750  
R21  23579155.264 1 126176795.834 1     -1530.741          33.750  
R23  22649148.994 1 121157724.803 1       989.366          34.500  
> 2021  5 18  7 21 43.4406716  0 22                     
E13  24319782.154 1                      -792.700          27.000    24317658.125 1  95427713.58211      -591.636          23.000  
E15  26684677.871 1                     -1575.050          31.500                                                                  
E21  24192333.185 1 127131555.148 1       263.682          33.250    24190211.254 1  94927585.674 1       197.117          30.750  
E26  25208655.700 1 132472433.747 1       631.075          35.750    25206537.966 1  98915868.426 1       471.649          37.000  
G 2  23552745.762 1 123770568.098 1      1161.979          36.750  
G 3  23295099.927 1 122416496.57411     -2924.202          36.500  
G 4  24996712.625 1                      1071.100          25.750  
G 6  21332438.749 1 112102720.208 1       212.453          39.000  
G 9  24379529.892 1 128115123.41011      1818.135          31.500  
G14  20735119.365 1 108963816.197 1     -1933.691          39.000  
G17  21439781.237 1 112666810.66411       542.701          28.250  
G19  21415537.621 1                      1288.850          22.750  
G28  20326562.203 1 106816798.066 1      -295.101          35.750  
G30  24813024.090 1 130393280.21211     -2389.028          29.250  
J 1  37434694.289 1 196720635.86011      -147.502          30.500                                                                  
J 2  35919271.595 1 188757082.819 1      -113.105          40.500    35916929.616 1 140945746.334 1       -84.530          33.750  
J 3  39482304.059 1 207480895.749 1       578.580          34.000    39479963.579 1 154927856.26611       432.211          25.500  
R 7  21141220.327 1 113170626.805 1      1040.412          38.250  
R 8  22013366.952 1 117880762.625 1      3525.962          39.000  
R12  20273865.584 1 108299214.466 1     -1491.643          35.500  
R21  23579442.281 1 126178324.46211     -1528.093          33.500  
R23  22648939.255 1 121156733.13111       991.296          31.750  
> 2021  5 18  7 21 44.4406716  0 21                     
E13  24319929.180 1                      -790.450          28.000                                                                  
E15  26684977.191 1 140230501.39611     -1570.062          30.500                                                                  
E21  24192287.145 1 127131291.269 1       264.801          33.250    24190162.815 1  94927388.641 1       197.850          30.500  
E26  25208535.011 1 132471802.119 1       632.633          36.750    25206418.476 1  98915396.816 1       472.453          38.500  
G 2  23552524.044 1 123769405.621 1      1163.568          34.750  
G 3  23295644.178 1 122419420.211 1     -2922.425          33.000  
G 6  21332400.503 1 112102507.663 1       213.476          39.750  
G 9  24379172.667 1 128113303.31411      1821.522          27.500  
G14  20735488.836 1 108965749.451 1     -1931.863          39.500  
G17  21439688.429 1 112666266.04911       546.146          29.000  
G19  21415288.621 1 112538101.19611      1294.632          26.750  
G28  20326619.591 1 106817092.988 1      -293.825          34.000  
G30  24813512.280 1 130395667.78711     -2385.034          26.250  
J 1  37434728.893 1 196720782.67011      -146.087          30.500                                                                  
J 2  35919290.609 1 188757195.115 1      -110.511          41.000    35916951.329 1 140945830.199 1       -82.520          33.000  
J 3  39482197.160 1 207480316.747 1       580.011          34.250    39479852.484 1                       430.650          26.500  
R 7  21141015.996 1 113169586.337 1      1041.290          38.250  
R 8  22012708.136 1 117877235.793 1      3528.594          38.000  
R12  20274147.516 1 108300705.930 1     -1490.375          35.750  
R21  23579746.997 1 126179852.24711     -1526.595          27.500  
R23  22648758.607 1 121155742.446 1       992.224          33.500  
> 2021  5 18  7 21 45.4406716  0 22                     
E13  24320086.216 1                      -793.600          25.000                                                                  
E21  24192228.930 1 127131026.792 1       263.411          32.500    24190111.795 1  94927191.111 1       196.859          32.500  
E26  25208415.039 1 132471169.814 1       631.324          35.750    25206298.204 1  98914924.593 1       471.640          38.000  
G 2  23552307.838 1 123768242.179 1      1162.588          36.000  
G 3  23296207.433 1 122422341.67111     -2922.160          34.000  
G 6  21332355.479 1 112102294.652 1       211.935          39.000  
G 9  24378841.041 1                      1820.650          25.250  
G14  20735855.128 1 108967681.368 1     -1932.567          39.750  
G17  21439633.812 1                       553.400          24.500  
G19  21415026.847 1 112536805.43011      1296.067          26.000  
G28  20326671.400 1 106817387.048 1      -294.983          34.000  
G30  24813946.923 1                     -2382.750          22.000  
J 1  37434746.825 1 196720928.73111      -146.452          30.250                                                                  
J 2  35919311.539 1 188757305.146 1      -110.204          41.000    35916972.259 1 140945912.360 1       -82.277          33.000  
J 3  39482081.985 1 207479737.166 1       578.556          34.500    39479743.304 1 154926992.27211       432.124          25.250  
R 7  21140824.073 1 113168545.373 1      1039.962          37.500  
R 8  22012048.238 1 117873706.646 1      3528.956          38.000  
R12  20274426.268 1 108302196.623 1     -1491.784          35.000  
R13  22143035.657 1                      1993.850          17.500  
R21  23580002.066 1 126181377.15611     -1524.557          29.000  
R22  21493090.405 1                      -724.550          18.250  
R23  22648590.968 1 121154750.818 1       990.476          34.250  
> 2021  5 18  7 21 46.4406715  0 22                     
E13  24320207.626 1                      -787.900          27.250                                                                  
E15  26685547.336 1                     -1571.700          27.750                                                                  
E21  24192148.280 1 127130608.331 1       261.905          32.000    24190032.345 1  94926878.659 1       195.299          30.250  
E26  25208263.638 1 132470383.146 1       630.509          35.750    25206148.302 1  98914337.226 1       470.612          37.000  
G 2  23552050.311 1 123766924.248 1      1161.841          35.000  
G 3  23296742.856 1 122425108.594 1     -2923.472          39.000  
G 4  24996068.438 1                      1073.900          25.750  
G 6  21332291.618 1 112101927.757 1       210.666          38.500  
G 9  24378436.316 1 128109547.35011      1821.074          27.250  
G14  20736198.085 1 108969458.564 1     -1933.989          38.750  
G17  21439458.727 1 112665115.22711       545.251          27.500  
G19  21414735.743 1                      1296.550          22.250  
G28  20326699.575 1 106817526.963 1      -296.507          34.500  
G30  24814379.818 1                     -2390.350          23.500  
J 1  37434748.918 1 196720919.78011      -146.781          28.000    37432417.432 1                      -109.900          17.500  
J 2  35919303.739 1 188757259.715 1      -111.378          41.000    35916963.559 1 140945878.454 1       -83.189          32.250  
J 3  39481950.071 1 207479003.448 1       577.721          33.750    39479603.295 1                       434.000          24.500  
R 7  21140622.607 1 113167347.666 1      1038.049          35.500  
R 8  22011354.212 1 117870019.033 1      3527.750          36.750  
R12  20274669.994 1 108303530.631 1     -1493.307          34.750  
R21  23580280.268 1 126182743.05711     -1525.531          28.750  
R23  22648361.921 1 121153602.403 1       989.543          32.000  
> 2021  5 18  7 21 47.4406715  0 25                     
E13  24320368.455 1                      -788.800          26.500                                                                  
E15  26685854.463 1                     -1572.800          33.000                                                                  
E21  24192106.149 1 127130347.163 1       262.369          33.000    24189982.119 1  94926683.501 1       195.984          28.750  
E26  25208144.460 1 132469753.352 1       631.099          34.250    25206028.225 1  98913866.851 1       471.556          35.500  
G 2  23551832.501 1 123765763.710 1      1161.344          35.250  
G 3  23297290.417 1 122428034.165 1     -2926.000          36.750  
G 4  24995816.752 1 131353902.67311      1072.537          26.250  
G 6  21332252.184 1 112101717.493 1       211.762          38.500  
G 9  24378092.593 1 128107728.96311      1817.106          27.250  
G14  20736559.474 1 108971394.410 1     -1936.010          39.500  
G17  21439379.422 1 112664569.59411       547.624          28.500  
G19  21414509.239 1 112534005.40411      1297.464          25.750  
G28  20326754.276 1 106817824.803 1      -297.354          33.750  
G30  24814819.154 1 130402754.52911     -2387.949          26.500  
J 1  37434761.349 1 196721067.46611      -149.027          27.000                                                                  
J 2  35919323.065 1 188757373.172 1      -113.934          40.750    35916984.684 1 140945963.134 1       -85.065          31.750  
J 3  39481838.987 1 207478425.712 1       579.169          33.000    39479494.310 1 154926014.76111       432.830          25.500  
R 6  23068786.807 1                     -2090.750          17.000  
R 7  21140422.785 1 113166310.700 1      1037.859          34.500  
R 8  22010702.903 1 117866493.671 1      3524.665          37.000  
R12  20274944.144 1 108305025.524 1     -1494.584          34.250  
R13  22142204.766 1                      1996.000          19.750  
R21  23580557.415 1 126184270.20811     -1528.171          33.250  
R22  21493366.347 1                      -726.700          19.500  
R23  22648178.887 1 121152612.678 1       991.724          33.250  
> 2021  5 18  7 21 48.4406715  0 22                     
E13  24320554.835 1 127805151.19211      -788.387          31.250                                                                  
E15  26686145.470 1 140236641.45111     -1574.832          33.750                                                                  
E21  24192052.095 1 127130083.926 1       263.510          34.000    24189931.663 1  94926487.034 1       196.779          27.500  
E26  25208025.651 1 132469120.978 1       632.640          36.500    25205908.517 1  98913394.725 1       472.356          34.750  
G 2  23551623.155 1 123764602.094 1      1161.830          36.750  
G 3  23297850.638 1 122430961.057 1     -2927.236          35.000  
G 4  24995660.469 1 131352831.01311      1071.029          27.750  
G 6  21332205.626 1 112101504.634 1       213.426          39.000  
G 9  24377816.393 1 128106288.86211      1817.598          26.750  
G14  20736932.025 1 108973330.946 1     -1937.227          40.000  
G17  21439319.972 1 112664386.65611       547.900          28.500  
G19  21414249.228 1 112532707.50411      1298.267          28.500  
G28  20326819.540 1 106818122.071 1      -297.437          35.250  
G30  24815276.546 1 130405144.02211     -2390.244          26.500  
J 1  37434812.523 1 196721216.77011      -149.120          28.500                                                                  
J 2  35919348.757 1 188757488.006 1      -115.628          40.000    35917007.078 1 140946048.927 1       -86.366          32.750  
J 3  39481714.782 1 207477844.679 1       581.931          33.000    39479384.195 1                       429.900          24.500  
R 7  21140213.139 1 113165272.842 1      1038.006          30.000  
R 8  22010033.975 1 117862970.059 1      3522.535          37.000  
R12  20275237.550 1 108306520.211 1     -1495.055          33.000  
R21  23580840.029 1 126185799.450 1     -1530.201          33.500  
R23  22648005.816 1 121151619.343 1       994.339          33.000  
> 2021  5 18  7 21 49.4406715  0 22                     
E13  24320717.446 1 127806233.179 1      -785.312          31.500                                                                  
E15  26686429.198 1 140238213.24611     -1571.208          32.250                                                                  
E21  24191996.757 1 127129818.075 1       265.504          34.000    24189882.621 1  94926288.427 1       198.794          31.000  
E26  25207902.860 1 132468485.594 1       635.288          36.500    25205786.925 1  98912920.192 1       474.869          35.000  
G 2  23551397.235 1 123763437.843 1      1164.164          35.750  
G 3  23298390.388 1 122433886.186 1     -2925.004          36.000  
G 6  21332162.579 1 112101288.551 1       216.019          39.500  
G 9  24377467.259 1 128104470.124 1      1818.814          29.500  
G14  20737296.396 1 108975266.062 1     -1935.345          40.250  
G17  21439189.686 1 112663836.99111       549.777          31.250  
G19  21414068.877 1 112531691.15211      1299.672          28.750  
G28  20326875.725 1 106818417.182 1      -295.451          35.750  
G30  24815738.350 1 130407532.13111     -2388.878          28.000  
J 1  37434834.232 1 196721363.574 1      -146.843          30.750                                                                  
J 2  35919365.968 1 188757601.500 1      -113.487          41.500    35917028.187 1 140946133.668 1       -84.810          31.500  
J 3  39481598.286 1 207477260.068 1       584.532          33.750    39479273.696 1 154925149.55611       436.911          24.750  
R 7  21139990.517 1 113164232.718 1      1039.981          32.000  
R 8  22009367.660 1 117859164.318 1      3524.715          37.000  
R12  20275519.478 1 108308013.167 1     -1493.399          33.750  
R21  23581121.957 1 126187327.453 1     -1527.931          33.250  
R22  21493652.682 1                      -729.900          21.000  
R23  22647842.253 1 121150622.233 1       997.179          34.500  
> 2021  5 18  7 21 50.4406715  0 21                     
E13  24320861.191 1 127807019.35011      -788.748          30.000                                                                  
E15  26686741.427 1                     -1573.200          28.750                                                                  
E21  24191950.434 1 127129554.528 1       261.679          34.250    24189831.801 1  94926091.607 1       195.502          30.000  
E26  25207780.390 1 132467852.151 1       632.008          34.000    25205666.553 1  98912447.213 1       471.766          35.500  
G 2  23551168.039 1 123762275.512 1      1160.756          36.750  
G 3  23298947.547 1 122436812.55211     -2928.123          37.500  
G 6  21332124.651 1 112101074.727 1       211.934          39.500  
G 9  24377074.376 1 128102652.58811      1816.756          27.750  
G14  20737667.385 1 108977202.975 1     -1937.944          40.750  
G17  21439066.616 1 112663288.79511       546.901          29.000  
G19  21413761.734 1 112530076.68111      1297.570          28.500  
G28  20326927.734 1 106818714.519 1      -299.004          35.500  
G30  24816172.894 1 130409921.01611     -2388.557          27.000  
J 1  37434882.044 1 196721511.779 1      -149.155          31.500    37432528.673 1                      -103.200          18.000  
J 2  35919386.499 1 188757716.255 1      -115.234          41.000    35917051.416 1 140946219.327 1       -86.136          31.750  
J 3  39481501.898 1 207476677.304 1       580.892          34.500    39479161.419 1                       437.400          23.000  
R 7  21139833.271 1 113163195.221 1      1035.617          37.500  
R 8  22008722.652 1 117855640.826 1      3522.856          36.500  
R12  20275787.338 1 108309508.372 1     -1496.833          37.500  
R21  23581403.907 1 126188856.180 1     -1529.113          34.000  
R23  22647615.455 1 121149627.206 1       992.750          36.000  
> 2021  5 18  7 21 51.4406714  0 22                     
E13  24320934.643 1                      -794.000          25.500                                                                  
E21  24191870.392 1 127129136.297 1       258.660          35.500    24189752.359 1  94925779.296 1       192.926          30.250  
E26  25207628.697 1 132467063.827 1       628.726          34.500    25205516.660 1  98911858.497 1       469.428          36.250  
G 2  23550912.318 1 123760957.823 1      1158.418          37.000  
G 3  23299481.180 1 122439583.13011     -2929.112          39.250  
G 6  21332062.296 1 112100706.405 1       208.698          40.250  
G 9  24376658.866 1 128100206.12211      1815.310          26.250  
G14  20738007.652 1 108978983.969 1     -1940.136          40.500  
G17  21438904.431 1 112662202.76311       544.537          29.000  
G19  21413517.406 1 112528624.19911      1292.356          27.000  
G28  20326955.317 1 106818856.747 1      -301.704          36.000  
G30  24816609.095 1                     -2392.050          25.500  
J 1  37434864.958 1 196721503.69411      -150.616          27.750    37432528.076 1 146893279.39811      -112.472          25.250  
J 2  35919379.307 1 188757673.946 1      -116.351          41.500    35917043.024 1 140946187.794 1       -86.863          34.250  
J 3  39481361.598 1 207475939.821 1       578.021          35.250    39479022.317 1 154924162.57611       431.753          26.750  
R 7  21139617.123 1 113162000.014 1      1032.827          36.750  
R 8  22008041.226 1 117851957.263 1      3521.613          36.750  
R12  20276045.162 1 108310845.943 1     -1499.784          36.000  
R13  22140714.378 1                      1997.200          18.000  
R21  23581694.708 1 126190225.21911     -1533.578          26.750  
R22  21493833.604 1                      -734.550          20.250  
R23  22647395.410 1 121148474.52611       988.926          32.750  
> 2021  5 18  7 21 52.4406714  0 22                     
E13  24321125.081 1                      -785.350          26.250                                                                  
E15  26687309.306 1                     -1572.600          30.250                                                                  
E21  24191821.296 1 127128878.993 1       260.026          36.000    24189703.263 1  94925587.188 1       194.835          29.000  
E26  25207513.647 1 132466436.016 1       630.760          36.000    25205397.412 1  98911389.717 1       471.011          36.500  
G 2  23550695.639 1 123759800.364 1      1160.520          36.250  
G 3  23300051.756 1 122442512.865 1     -2926.588          39.750  
G 6  21332020.695 1 112100499.077 1       210.193          40.500  
G 9  24376372.334 1 128098700.60011      1819.578          29.250  
G14  20738374.068 1 108980924.636 1     -1937.469          39.500  
G17  21438832.251 1 112661659.74511       544.449          29.500  
G19  21413238.369 1 112527331.67511      1294.234          27.250  
G28  20327011.149 1 106819159.281 1      -299.613          36.000  
G30  24817065.449 1 130414559.06511     -2384.872          27.500  
J 1  37434894.108 1 196721654.57711      -147.996          30.250    37432556.926 1                      -106.750          23.000  
J 2  35919403.061 1 188757790.281 1      -112.658          41.750    35917064.979 1 140946274.570 1       -84.079          33.250  
J 3  39481265.435 1 207475363.002 1       580.040          34.500    39478909.965 1                       432.800          26.250  
R 6  23070715.622 1                     -2094.950          17.000  
R 7  21139416.033 1 113160968.482 1      1034.702          36.750  
R 8  22007385.050 1 117848435.77811      3525.254          36.250  
R12  20276326.437 1 108312346.632 1     -1497.565          34.500  
R21  23581949.602 1 126191759.02111     -1526.596          29.500  
R23  22647244.385 1 121147486.867 1       991.257          35.250  
> 2021  5 18  7 21 53.4406714  0 22                     
E13  24321293.256 1                      -784.300          28.250                                                                  
E15  26687614.186 1                     -1571.750          29.250                                                                  
E21  24191771.821 1 127128618.139 1       261.097          34.500    24189654.087 1  94925392.371 1       194.924          28.250  
E26  25207397.019 1 132465804.426 1       631.783          35.500    25205277.186 1  98910918.045 1       472.067          36.500  
G 2  23550475.581 1 123758639.206 1      1161.208          37.500  
G 3  23300608.461 1 122445438.752 1     -2926.441          39.750  
G 6  21331977.516 1 112100288.021 1       211.260          40.250  
G 9  24375995.186 1 128096879.82311      1820.266          30.500  
G14  20738744.303 1 108982861.593 1     -1937.496          40.500  
G17  21438680.547 1 112661114.13611       544.684          28.250  
G19  21413015.614 1 112526037.79011      1295.338          29.000  
G28  20327065.102 1 106819458.381 1      -299.291          36.000  
G30  24817508.233 1 130416943.03811     -2384.533          29.000  
J 1  37434917.183 1 196721801.75011      -147.171          33.750                                                                  
J 2  35919425.835 1 188757902.519 1      -112.852          42.000    35917086.555 1 140946358.32511       -84.473          28.250  
J 3  39481139.812 1 207474782.074 1       581.373          33.500    39478801.131 1 154923294.88711       434.409          26.500  
R 6  23071138.020 1                     -2096.400          22.500  
R 7  21139217.261 1 113159933.35611      1035.122          37.500  
R 8  22006726.097 1 117844910.09811      3525.323          35.500  
R12  20276593.243 1 108313843.864 1     -1497.532          35.000  
R21  23582237.093 1 126193284.39611     -1525.851          33.000  
R23  22647044.114 1 121146494.623 1       992.829          32.000  
> 2021  5 18  7 21 54.4406714  0 22                     
E13  24321417.203 1                      -790.000          27.750                                                                  
E15  26687915.610 1 140245943.16711     -1578.577          31.750                                                                  
E21  24191722.189 1 127128355.484 1       259.482          35.000    24189602.357 1  94925196.245 1       193.944          30.750  
E26  25207269.141 1 132465170.661 1       630.853          37.000    25205156.503 1  98910444.799 1       471.421          36.250  
G 2  23550249.971 1 123757476.264 1      1160.192          37.500  
G 3  23301165.609 1 122448363.762 1     -2927.618          42.000  
G 6  21331935.678 1 112100074.904 1       210.093          40.750  
G 9  24375625.376 1 128094775.240 1      1818.843          31.750  
G14  20739116.478 1 108984797.587 1     -1938.684          39.750  
G17  21438576.053 1 112660568.25611       542.812          28.250  
G19  21412755.528 1                      1296.000          24.000  
G28  20327128.192 1 106819756.090 1      -300.586          35.500  
G30  24817964.051 1 130419325.795 1     -2384.937          30.250  
J 1  37434950.593 1 196721947.851 1      -148.132          34.000                                                                  
J 2  35919444.556 1 188758013.587 1      -113.484          41.750    35917107.674 1 140946441.422 1       -84.576          30.500  
J 3  39481041.913 1 207474198.470 1       580.935          32.250    39478686.744 1                       436.150          24.500  
R 7  21139027.326 1 113158896.760 1      1033.525          37.500  
R 8  22006067.287 1 117841382.902 1      3524.865          38.250  
R12  20276875.481 1 108315340.035 1     -1499.267          35.250  
R21  23582522.030 1 126194808.818 1     -1525.857          34.250  
R22  21494204.642 1                      -730.400          19.000  
R23  22646849.982 1 121145499.87311       991.638          32.500  
> 2021  5 18  7 21 55.4406713  0 22                     
E13  24321497.074 1 127810329.98811      -793.288          30.500                                                                  
E15  26688178.954 1 140247368.58111     -1582.653          29.250                                                                  
E21  24191643.469 1 127127941.646 1       257.760          33.750    24189524.236 1  94924887.224 1       193.033          31.250  
E26  25207123.567 1 132464385.499 1       629.246          36.250    25205006.733 1  98909858.426 1       470.656          36.250  
G 2  23550004.866 1 123756161.891 1      1158.492          36.750  
G 3  23301701.164 1 122451137.56111     -2929.486          40.000  
G 6  21331871.948 1 112099710.534 1       208.412          42.000  
G 9  24375269.048 1 128092801.10511      1817.769          30.500  
G14  20739452.371 1 108986581.860 1     -1940.145          38.500  
G17  21438455.961 1 112659870.03511       542.192          33.250  
G19  21412476.846 1 112523324.87911      1294.854          29.000  
G28  20327150.502 1 106819902.437 1      -302.260          36.000  
G30  24818391.980 1 130421555.550 1     -2384.991          28.250  
J 1  37434953.417 1 196721941.342 1      -149.046          36.000                                                                  
J 2  35919437.786 1 188757972.292 1      -114.209          43.000    35917100.304 1 140946410.538 1       -85.311          35.500  
J 3  39480898.738 1 207473463.206 1       579.982          33.250    39478549.564 1                       435.450          21.750  
R 7  21138814.299 1 113157706.180 1      1031.534          37.000  
R 8  22005384.485 1 117837700.40211      3523.802          37.000  
R12  20277136.426 1 108316682.533 1     -1500.984          35.250  
R13  22139197.148 1                      1987.400          18.500  
R21  23582781.476 1 126196176.901 1     -1526.368          34.000  
R23  22646651.345 1 121144351.101 1       990.174          34.500  
> 2021  5 18  7 21 56.4406713  0 23                     
E13  24321654.100 1 127811122.96911      -792.822          30.750                                                                  
E15  26688469.987 1                     -1570.900          31.250    26686220.645 1 104722461.66511     -1182.172          22.000  
E21  24191596.637 1 127127683.940 1       257.290          35.000    24189476.505 1  94924694.812 1       192.562          31.500  
E26  25207003.585 1 132463756.007 1       629.378          39.250    25204887.650 1  98909388.401 1       470.233          37.750  
G 2  23549785.353 1 123755003.146 1      1158.721          35.000  
G 3  23302251.518 1 122454065.814 1     -2928.525          41.500  
G 6  21331829.013 1 112099502.302 1       207.975          39.500  
G 9  24374935.014 1 128090982.53711      1818.542          31.750  
G14  20739819.852 1 108988521.886 1     -1940.194          39.750  
G17  21438363.560 1 112659327.18111       543.137          31.750  
G19  21412266.927 1 112522029.58611      1296.705          30.250  
G28  20327208.297 1 106820204.868 1      -302.774          35.750  
G30  24818891.669 1                     -2389.250          25.500  
J 1  37434986.629 1 196722090.131 1      -148.775          35.750    37432641.952 1                      -108.300          19.500  
J 2  35919457.807 1 188758086.041 1      -113.492          42.500    35917122.424 1 140946495.405 1       -84.637          35.000  
J 3  39480789.849 1 207472883.31611       579.365          31.500    39478436.778 1                       432.750          21.500  
R 6  23072296.612 1                     -2095.100          19.500  
R 7  21138609.776 1 113156674.970 1      1031.001          37.000  
R 8  22004720.679 1 117834175.96311      3524.688          37.000  
R12  20277416.667 1 108318183.75811     -1501.554          35.000  
R21  23583103.987 1                     -1526.300          25.000  
R22  21494481.711 1                      -738.250          19.750  
R23  22646452.518 1 121143360.993 1       989.868          31.750  
> 2021  5 18  7 21 57.4406713  0 20                     
E13  24321799.863 1 127811914.76111      -792.782          31.750                                                                  
E15  26688778.538 1 140250477.92511     -1573.850          32.250                                                                  
E21  24191543.038 1 127127425.324 1       257.583          33.250    24189425.904 1  94924501.627 1       192.471          30.000  
E26  25206881.634 1 132463125.308 1       629.479          37.000    25204767.197 1  98908917.384 1       470.310          36.000  
G 2  23549560.873 1 123753842.933 1      1158.962          36.000  
G 3  23302813.393 1 122456993.14711     -2928.525          38.750  
G 6  21331787.705 1 112099292.948 1       208.305          41.000  
G 9  24374602.908 1 128089162.42211      1818.877          33.500  
G14  20740192.558 1 108990460.682 1     -1940.188          39.500  
G17  21438261.395 1 112658782.09111       543.898          32.500  
G19  21412002.274 1 112520729.81111      1299.480          29.000  
G28  20327267.420 1 106820506.255 1      -302.644          36.000  
J 1  37435006.479 1 196722237.175 1      -148.283          35.000                                                                  
J 2  35919484.853 1 188758198.037 1      -113.249          42.750    35917141.375 1 140946579.12211       -84.661          28.250  
J 3  39480670.295 1 207472302.50311       580.130          30.000                                                                  
R 7  21138415.274 1 113155642.970 1      1030.626          37.750  
R 8  22004056.104 1 117830649.72111      3525.078          38.000  
R12  20277694.639 1 108319684.188 1     -1501.836          32.000  
R21  23583393.351 1                     -1531.500          25.500  
R23  22646263.413 1 121142369.80811       990.271          30.500  
> 2021  5 18  7 21 58.4406713  0 22                     
E13  24321953.212 1 127812705.26711      -790.377          30.500                                                                  
E15  26689074.288 1                     -1568.700          33.750    26686813.553 1                     -1172.750          22.750  
E21  24191497.625 1 127127166.470 1       259.055          36.750    24189377.492 1  94924308.397 1       193.363          30.500  
E26  25206763.970 1 132462493.894 1       631.560          38.250    25204646.836 1  98908445.877 1       472.019          37.250  
G 2  23549338.282 1 123752682.635 1      1160.724          34.250  
G 3  23303342.082 1 122459920.30611     -2927.659          36.500  
G 6  21331749.187 1 112099082.993 1       210.202          42.250  
G 9  24374265.197 1 128087627.51211      1822.936          32.250  
G14  20740564.156 1 108992399.748 1     -1938.712          40.000  
G17  21438157.223 1 112658236.39711       545.996          32.750  
G19  21411765.893 1 112519431.71711      1297.108          30.500  
G28  20327325.735 1 106820807.757 1      -301.310          35.500  
G30  24819758.589 1                     -2380.700          19.500  
J 1  37435038.712 1 196722384.141 1      -146.375          35.750    37432693.735 1                      -106.300          22.500  
J 2  35919504.794 1 188758310.080 1      -111.354          42.750    35917162.816 1 140946662.803 1       -83.070          33.750  
J 3  39480555.330 1 207471720.55511       582.982          33.000    39478213.951 1                       432.750          23.000  
R 6  23073014.534 1                     -2100.600          21.750  
R 7  21138232.856 1 113154611.011 1      1032.137          37.000  
R 8  22003414.103 1 117827123.882 1      3526.681          38.250  
R12  20277969.704 1 108321184.674 1     -1500.050          34.500  
R21  23583616.852 1 126200696.84011     -1522.835          27.000  
R23  22646094.785 1 121141377.667 1       992.698          33.250  
> 2021  5 18  7 21 59.4406712  0 22                     
E13  24322067.656 1 127813340.06011      -789.625          29.750                                                                  
E15  26689348.821 1 140253474.99111     -1558.617          32.750    26687080.292 1 104725834.39211     -1174.748          25.500  
E21  24191412.407 1 127126751.731 1       259.707          34.000    24189297.371 1  94923998.593 1       194.208          29.750  
E26  25206609.201 1 132461706.352 1       632.598          37.500    25204497.163 1  98907857.775 1       472.524          35.750  
G 2  23549092.975 1 123751366.014 1      1161.836          38.250  
G 3  23303854.950 1 122462693.16611     -2927.248          36.500  
G 6  21331679.559 1 112098717.243 1       210.878          41.750  
G 9  24373897.275 1 128085649.31511      1823.445          30.000  
G14  20740897.748 1 108994182.625 1     -1937.848          39.500  
G17  21438042.925 1 112657534.69911       547.329          32.500  
G19  21411460.927 1 112517977.59911      1299.951          28.250  
G28  20327352.939 1 106820953.344 1      -300.600          34.500  
G30  24820193.511 1 130430996.69711     -2379.666          28.000  
J 1  37435029.941 1 196722374.382 1      -144.809          34.500    37432692.759 1                      -108.150          22.000  
J 2  35919493.025 1 188758265.307 1      -109.926          42.000    35917155.843 1 140946629.274 1       -81.998          33.750  
J 3  39480411.053 1 207470982.097 1       583.216          32.250    39478073.571 1                       432.500          23.000  
R 7  21138001.039 1 113153420.532 1      1032.491          36.500  
R 8  22002723.005 1 117823438.13511      3528.020          37.250  
R12  20278228.947 1 108322526.965 1     -1499.817          34.500  
R21  23583917.766 1                     -1523.000          24.500  
R22  21494913.254 1                      -722.700          20.000  
R23  22645862.669 1 121140226.436 1       993.471          33.500  
> 2021  5 18  7 22  0.4406712  0 23                     
E13  24322224.803 1 127814127.83011      -791.857          29.000                                                                  
E15  26689645.672 1 140255049.12411     -1572.015          31.750    26687382.838 1 104727005.32411     -1178.096          23.750  
E21  24191368.993 1 127126490.868 1       256.233          33.250    24189249.160 1  94923803.805 1       191.342          31.000  
E26  25206494.436 1 132461072.066 1       629.739          40.250    25204376.402 1  98907384.208 1       470.170          37.750  
G 2  23548871.185 1 123750203.128 1      1157.966          36.750  
G 3  23304464.784 1 122465617.61611     -2931.409          33.250  
G 4  24993121.051 1                      1071.150          26.750  
G 6  21331638.843 1 112098505.002 1       207.746          39.750  
G 9  24373581.649 1 128083825.02211      1819.612          30.500  
G14  20741269.847 1 108996119.829 1     -1942.370          38.500  
G17  21437962.636 1 112657253.197 1       546.426          36.250  
G19  21411245.732 1 112516677.48911      1296.389          26.750  
G28  20327405.159 1 106821253.154 1      -304.529          36.000  
G30  24820623.169 1 130433375.11011     -2383.488          26.500  
J 1  37435057.878 1 196722518.515 1      -148.900          34.000                                                                  
J 2  35919516.165 1 188758374.602 1      -114.416          43.000    35917174.786 1 140946710.954 1       -85.493          30.250  
J 3  39480316.375 1 207470397.19511       580.501          30.500                                                                  
R 7  21137815.524 1 113152387.146 1      1028.417          36.500  
R 8  22002063.218 1 117819911.59411      3521.386          36.000  
R12  20278510.508 1 108324026.019 1     -1504.139          35.500  
R13  22137270.216 1                      1983.250          17.250  
R21  23584172.346 1 126203670.06811     -1525.663          30.250  
R23  22645691.243 1 121139231.272 1       990.914          34.500  
> 2021  5 18  7 22  1.4406712  0 23                     
E13  24322389.630 1                      -794.000          26.750                                                                  
E15  26689952.001 1 140256627.08811     -1570.854          33.500    26687683.471 1 104728184.87411     -1173.520          24.000  
E21  24191318.868 1 127126238.951 1       254.146          33.500    24189200.535 1  94923615.701 1       189.850          31.000  
E26  25206368.464 1 132460446.661 1       627.849          37.750    25204257.326 1  98906917.168 1       468.899          36.000  
G 2  23548648.680 1 123749049.376 1      1156.248          37.750  
G 3  23304984.565 1 122468553.966 1     -2932.914          38.000  
G 6  21331599.811 1 112098301.408 1       206.077          40.500  
G 9  24373217.942 1 128082009.90211      1816.271          26.000  
G14  20741636.734 1 108998066.976 1     -1945.226          38.250  
G17  21437820.775 1 112656711.92111       543.249          31.750  
G19  21410981.556 1 112515386.29011      1294.646          30.750  
G28  20327470.755 1 106821562.356 1      -307.145          35.250  
G30  24821067.402 1                     -2383.800          25.250  
J 1  37435094.393 1 196722671.977 1      -151.245          34.500    37432750.616 1                      -108.900          19.000  
J 2  35919537.392 1 188758493.796 1      -117.245          41.000    35917198.711 1 140946799.938 1       -87.580          31.500  
J 3  39480197.598 1 207469820.45111       579.524          34.000    39477854.420 1                       430.750          21.500  
R 6  23074145.571 1                     -2104.100          18.000  
R 7  21137619.101 1 113151363.333 1      1025.763          37.000  
R 8  22001406.313 1 117816392.70211      3520.099          39.750  
R12  20278790.156 1 108325535.032 1     -1507.007          34.000  
R21  23584443.599 1 126205199.91611     -1528.951          32.250  
R22  21495187.861 1                      -732.900          20.000  
R23  22645491.822 1 121138244.231 1       989.873          35.500  
> 2021  5 18  7 22  2.4406712  0 23                     
E13  24322518.086 1                      -794.500          28.000                                                                  
E15  26690243.544 1                     -1571.700          36.000    26687984.608 1                     -1174.600          27.500  
E21  24191271.946 1 127125983.403 1       255.446          35.750    24189152.414 1  94923424.930 1       190.701          33.500  
E26  25206254.388 1 132459817.076 1       629.637          38.000    25204136.655 1  98906446.969 1       470.144          37.500  
G 2  23548432.375 1 123747891.591 1      1158.185          36.500  
G 3  23305525.536 1 122471485.80311     -2933.628          36.250  
G 4  24992659.757 1 131337312.68511      1069.358          27.750  
G 6  21331559.484 1 112098093.995 1       207.357          39.000  
G 9  24372900.008 1 128080194.21511      1817.565          26.500  
G14  20742008.921 1 109000010.708 1     -1943.196          39.500  
G17  21437746.272 1 112656166.88411       545.062          33.000  
G19  21410751.760 1 112514088.89911      1297.919          27.500  
G28  20327528.160 1 106821868.232 1      -305.587          34.000  
G30  24821572.998 1                     -2383.000          25.250  
J 1  37435112.226 1 196722821.714 1      -149.398          32.750    37432781.340 1 146894273.43511      -110.987          23.750  
J 2  35919560.621 1 188758609.184 1      -114.356          41.250    35917220.441 1 140946886.119 1       -85.361          33.750  
J 3  39480094.615 1 207469239.739 1       580.609          34.000    39477746.040 1 154919154.32311       433.404          25.000  
R 7  21137432.475 1 113150336.374 1      1026.893          37.750  
R 8  22000754.110 1 117812871.107 1      3522.973          38.000  
R12  20279079.601 1 108327040.812 1     -1505.687          33.250  
R21  23584731.845 1 126206726.87111     -1525.537          32.250  
R22  21495288.137 1                      -728.650          22.750  
R23  22645308.494 1 121137253.048 1       991.074          36.500  
> 2021  5 18  7 22  3.4406712  0 22                     
E13  24322682.619 1                      -787.600          27.500                                                                  
E15  26690533.690 1 140259701.60011     -1576.845          34.000    26688282.549 1                     -1176.800          30.000  
E21  24191221.528 1 127125725.405 1       256.830          36.750    24189102.295 1  94923232.29811       192.663          30.000  
E26  25206135.318 1 132459184.664 1       631.430          37.750    25204017.284 1  98905974.705 1       471.977          37.000  
G 2  23548202.081 1 123746730.73011      1160.108          32.250  
G 3  23306033.031 1 122474029.68011     -2934.035          36.250  
G 6  21331522.257 1 112097884.116 1       208.955          39.500  
G 9  24372526.713 1 128078371.329 1      1821.606          31.500  
G14  20742376.414 1 109001951.438 1     -1941.850          39.750  
G17  21437660.778 1 112655617.80211       548.310          35.000  
G19  21410519.068 1 112512788.52511      1300.242          33.000  
G28  20327585.068 1 106822171.469 1      -304.390          34.500  
G30  24822034.325 1                     -2380.800          25.500  
J 1  37435162.538 1 196722968.18311      -148.369          29.500    37432811.266 1                      -107.000          22.000  
J 2  35919582.153 1 188758720.704 1      -112.501          40.000    35917241.074 1 140946969.434 1       -84.023          31.500  
J 3  39479979.441 1 207468656.485 1       582.399          36.000    39477634.464 1                       434.100          25.000  
R 7  21137248.649 1 113149307.490 1      1027.516          35.500  
R 8  22000088.218 1 117809345.232 1      3524.855          38.250  
R12  20279372.445 1                     -1506.700          28.750  
R13  22136225.772 1                      1983.350          19.750  
R21  23585012.997 1                     -1525.000          26.000  
R23  22645132.163 1 121136259.19611       993.079          34.000  
> 2021  5 18  7 22  4.4406711  0 22                     
E13  24322832.123 1                      -786.350          25.250                                                                  
E15  26690812.104 1 140261121.76711     -1574.043          35.750    26688549.571 1 104731600.39311     -1175.476          29.750  
E21  24191142.290 1 127125313.465 1       256.671          37.750    24189023.357 1  94922924.455 1       191.840          27.500  
E26  25205983.230 1 132458397.659 1       631.743          36.750    25203867.595 1  98905387.090 1       472.154          35.500  
G 2  23547995.431 1 123745415.40411      1159.653          30.250  
G 3  23306540.487 1 122476809.09011     -2933.828          38.000  
G 4  24992265.684 1                      1071.300          25.500  
G 6  21331447.515 1 112097519.841 1       209.088          40.250  
G 9  24372138.988 1 128076394.775 1      1820.374          30.750  
G14  20742721.982 1 109003738.658 1     -1943.196          40.250  
G17  21437523.081 1 112654914.401 1       547.624          39.000  
G19  21410242.567 1 112511333.253 1      1300.064          33.250  
G28  20327609.558 1 106822321.057 1      -305.142          33.500  
G30  24822402.677 1                     -2382.350          25.000  
J 1                                                                  37432806.077 1                      -103.800          20.750  
J 2  35919575.464 1 188758678.546 1      -113.925          40.750    35917232.886 1 140946938.002 1       -85.139          30.000  
J 3  39479827.653 1 207467918.574 1       583.062          36.000    39477494.968 1 154918169.49311       435.677          27.000  
R 7  21137008.423 1 113148122.013 1      1027.153          35.750  
R 8  21999397.103 1 117805662.849 1      3523.230          36.750  
R12  20279654.157 1                     -1506.650          25.500  
R21  23585307.900 1 126209745.87411     -1525.030          28.500  
R23  22644905.128 1 121135107.870 1       993.879          32.000  
> 2021  5 18  7 22  5.4406711  0 21                     
E15  26691118.310 1 140262693.08911     -1572.966          36.750    26688851.879 1 104732774.655 1     -1176.671          30.500  
E21  24191097.139 1 127125055.215 1       254.978          36.000    24188974.308 1  94922731.680 1       190.599          29.000  
E26  25205864.630 1 132457764.170 1       630.591          33.750    25203747.795 1  98904914.089 1       470.610          36.500  
G 2  23547761.111 1 123744254.87511      1157.991          29.000  
G 3  23307192.053 1 122480120.71911     -2932.208          43.500  
G 6  21331411.958 1 112097309.127 1       207.601          41.500  
G 9  24371816.829 1 128074573.52711      1818.979          30.000  
G14  20743085.447 1 109005680.780 1     -1945.102          40.750  
G17  21437422.168 1 112654365.159 1       546.225          39.500  
G19  21409995.056 1 112510032.202 1      1298.261          35.500  
G28  20327669.334 1 106822624.993 1      -307.050          36.500  
G30  24822882.463 1                     -2382.250          23.500  
J 2  35919592.970 1 188758791.365 1      -115.347          39.750    35917253.689 1 140947022.220 1       -86.123          31.750  
J 3  39479727.040 1 207467333.611 1       581.797          36.000    39477382.364 1                       433.900          26.250  
R 6  23075788.551 1                     -2103.850          20.500  
R 7  21136794.488 1 113147093.87311      1024.989          31.250  
R 8  21998752.667 1 117802138.502 1      3521.840          36.750  
R12  20279905.500 1                     -1505.550          23.500  
R21  23585568.238 1 126211269.66111     -1526.464          30.000  
R22  21495710.816 1                      -731.100          19.750  
R23  22644703.185 1 121134112.246 1       992.187          30.000  
> 2021  5 18  7 22  6.4406711  0 23                     
E13  24323137.283 1                      -788.800          21.750                                                                  
E15  26691425.151 1 140264270.77411     -1576.979          32.750    26689148.227 1 104733952.32111     -1176.614          27.500  
E21  24191046.627 1 127124803.387 1       253.658          38.250    24188926.495 1  94922543.633 1       189.625          26.250  
E26  25205741.269 1 132457136.911 1       629.474          35.000    25203627.132 1  98904445.582 1       470.244          34.000  
G 2  23547540.317 1 123743100.33011      1156.301          33.000  
G 3  23307751.020 1 122483056.22911     -2933.207          43.750  
G 6  21331371.639 1 112097104.608 1       206.675          41.500  
G 9  24371428.451 1 128072757.55111      1817.822          30.500  
G14  20743458.243 1 109007628.735 1     -1946.166          40.500  
G17  21437306.901 1 112653821.717 1       545.710          38.750  
G19  21409740.985 1 112508737.53311      1296.148          32.000  
G28  20327727.347 1 106822935.218 1      -308.309          36.250  
G30  24823330.506 1 130447482.01111     -2383.715          25.750  
J 1  37435218.178 1                      -147.800          25.000    37432863.008 1                      -103.000          20.000  
J 2  35919615.308 1 188758909.372 1      -116.129          41.000    35917278.426 1 140947110.306 1       -86.605          32.000  
J 3  39479612.973 1 207466754.422 1       581.489          36.000    39477270.694 1 154917289.06211       434.333          24.000  
R 6  23076120.274 1                     -2110.550          23.000  
R 7  21136661.534 1 113146071.95711      1024.396          31.250  
R 8  21998086.082 1 117798619.570 1      3520.831          34.250  
R12  20280211.742 1                     -1505.900          25.000  
R21  23585822.615 1 126212500.34511     -1526.072          28.750  
R22  21495847.974 1                      -726.000          23.000  
R23  22644557.939 1 121133122.81611       991.712          31.000  
> 2021  5 18  7 22  7.4406711  0 23                     
E13  24323244.531 1                      -790.350          25.000                                                                  
E15  26691718.571 1 140265843.01411     -1570.657          36.500    26689451.240 1 104735126.55111     -1174.716          28.000  
E21  24190999.483 1 127124547.602 1       254.245          36.750    24188878.451 1  94922352.701 1       190.191          29.500  
E26  25205623.373 1 132456505.288 1       630.282          36.500    25203506.539 1  98903973.893 1       470.346          33.000  
G 2  23547308.201 1 123741941.203 1      1157.907          40.750  
G 3  23308261.489 1 122485988.36111     -2934.498          38.000  
G 6  21331332.589 1 112096895.864 1       207.497          39.500  
G 9  24371120.787 1 128070938.80711      1815.783          26.250  
G14  20743827.810 1 109009573.122 1     -1945.788          40.500  
G17  21437193.803 1 112653274.118 1       546.094          37.500  
G19  21409501.973 1 112507437.78511      1298.956          34.000  
G28  20327786.030 1 106823241.664 1      -307.910          35.750  
G30  24823769.325 1                     -2383.300          25.500  
J 1  37435261.571 1                      -148.700          25.500    37432888.414 1                      -112.050          21.500  
J 2  35919640.713 1 188759023.460 1      -115.292          41.250    35917298.435 1 140947195.526 1       -86.192          32.500  
J 3  39479502.872 1 207466170.532 1       582.873          36.500    39477162.692 1                       433.100          26.500  
R 7  21136501.368 1 113145346.03511      1026.243          29.500  
R 8  21997426.761 1 117795096.726 1      3521.405          34.250  
R12  20280488.973 1                     -1509.200          22.500  
R13  22134716.118 1                      1985.700          18.000  
R21  23586155.008 1                     -1524.650          26.500  
R22  21495980.106 1                      -729.550          24.000  
R23  22644351.605 1 121132128.71311       992.525          30.250  
> 2021  5 18  7 22  8.4406711  0 21                     
E13  24323403.362 1                      -789.700          28.250                                                                  
E15  26692006.912 1 140267413.17311     -1571.101          32.500                                                                  
E21  24190947.859 1 127124292.24011       254.944          33.750    24188830.725 1  94922161.994 1       190.525          28.750  
E26  25205506.695 1 132455873.53511       631.419          33.500    25203388.061 1  98903502.241 1       472.093          35.500  
G 2  23547086.595 1 123740781.47711      1159.379          39.000  
G 3  23308849.623 1 122488922.21211     -2933.453          38.250  
G 4  24991418.005 1                      1067.000          25.500  
G 6  21331294.756 1 112096687.439 1       208.253          40.500  
G 9  24370755.881 1 128069121.35411      1819.141          30.750  
G14  20744200.093 1 109011517.417 1     -1944.154          40.500  
G17  21437087.017 1 112652726.489 1       547.677          38.000  
G19  21409256.384 1 112506400.933 1      1300.077          37.250  
G28  20327851.625 1 106823548.353 1      -306.702          35.000  
G30  24824216.257 1 130452136.06011     -2379.258          26.250  
J 1  37435262.711 1 196723761.29311      -146.535          29.500                                                                  
J 2  35919660.141 1 188759136.861 1      -112.922          40.750    35917320.560 1 140947280.258 1       -84.291          31.750  
J 3  39479390.091 1 207465586.333 1       584.593          35.000    39477050.211 1 154916423.66211       436.807          23.750  
R 7  21136265.072 1 113144318.91911      1026.070          30.500  
R 8  21996767.459 1 117791573.125 1      3524.348          35.500  
R21  23586437.653 1                     -1530.050          22.750  
R23  22644159.978 1 121131134.49911       995.637          27.000  
> 2021  5 18  7 22  9.4406710  0 22                     
E13  24323519.251 1 127820955.92811      -790.620          30.750                                                                  
E15  26692274.196 1 140268828.30811     -1572.993          35.250    26690023.954 1                     -1177.650          24.500  
E21  24190868.284 1 127123882.23811       252.274          29.500    24188752.648 1  94921855.683 1       188.407          30.750  
E26  25205362.064 1 132455087.297 1       629.082          38.750    25203238.334 1  98902915.136 1       469.507          35.000  
G 2  23546834.939 1 123739467.84011      1156.259          38.500  
G 3  23309400.811 1 122491699.19111     -2934.548          38.250  
G 4  24991198.726 1 131329635.36911      1068.468          27.000  
G 6  21331225.673 1 112096324.318 1       205.608          40.000  
G 9  24370384.007 1 128067144.15311      1819.251          29.750  
G14  20744538.428 1 109013306.530 1     -1946.870          37.500  
G17  21436937.590 1 112652023.743 1       545.294          36.000  
G19  21408981.943 1 112504945.908 1      1297.394          41.000  
G28  20327876.077 1 106823700.044 1      -309.475          33.750  
G30  24824651.125 1                     -2379.850          25.500  
J 1  37435255.385 1 196723752.799 1      -148.657          34.500    37432921.201 1                      -111.200          20.000  
J 2  35919649.217 1 188759094.626 1      -115.333          40.000    35917314.134 1 140947248.607 1       -86.071          33.500  
J 3  39479253.854 1 207464846.16411       584.737          27.000    39476904.681 1                       436.700          23.500  
R 6  23077279.905 1                     -2103.700          20.250  
R 7  21136055.986 1 113143135.66411      1022.930          27.500  
R 8  21996079.005 1 117787890.680 1      3521.670          36.000  
R22  21496264.419 1                      -721.650          21.250  
R23  22643968.880 1                       992.900          24.500  
> 2021  5 18  7 22 10.4406710  0 23                     
E13  24323671.939 1 127821746.76711      -790.171          29.750    24321539.216 1  95442939.88911      -592.664          27.000  
E15  26692567.787 1 140270400.73611     -1572.821          35.000                                                                  
E21  24190824.907 1 127123630.965 1       251.703          31.250    24188703.876 1  94921668.093 1       188.079          31.500  
E26  25205241.941 1 132454459.50511       628.393          40.500    25203118.211 1  98902446.222 1       469.020          35.500  
G 2  23546607.790 1 123738313.048 1      1154.722          34.500  
G 3  23309967.512 1 122494635.67311     -2936.024          38.250  
G 4  24990967.081 1                      1062.600          24.000  
G 6  21331183.796 1 112096119.661 1       204.786          39.500  
G 9  24370062.724 1 128065326.60311      1817.637          26.000  
G14  20744908.466 1 109015254.749 1     -1948.229          37.000  
G17  21436817.167 1 112651480.59011       543.593          38.500  
G19  21408731.111 1 112503649.638 1      1296.152          42.000  
G28  20327935.230 1 106824010.620 1      -310.679          33.500  
G30  24825101.807 1 130456790.13411     -2382.175          27.500  
J 1  37435279.163 1 196723902.45311      -149.311          30.000                                                                  
J 2  35919673.295 1 188759211.152 1      -116.286          39.500    35917335.813 1 140947335.584 1       -86.795          31.000  
J 3  39479138.228 1 207464262.37111       582.282          32.500    39476795.650 1 154915424.98911       435.301          26.500  
R 7  21135903.186 1 113142113.98111      1022.263          28.500  
R 8  21995422.853 1 117784370.213 1      3520.740          36.750  
R13  22133481.177 1                      1978.200          20.500  
R21  23586947.563 1                     -1525.450          22.250  
R22  21496283.100 1                      -730.300          23.000  
R23  22643771.410 1                       992.700          23.750  
> 2021  5 18  7 22 11.4406710  0 23                     
E13  24323823.837 1 127822537.47111      -791.807          31.000    24321687.816 1  95443529.25011      -591.312          25.750  
E15  26692868.682 1 140271974.98911     -1576.557          38.000    26690625.035 1                     -1179.500          24.250  
E21  24190776.244 1 127123378.82611       249.643          29.500    24188656.712 1  94921480.324 1       187.146          29.500  
E26  25205121.328 1 132453830.062 1       629.055          40.750    25202998.797 1  98901977.014 1       468.825          35.750  
G 2  23546397.838 1 123737157.32911      1155.055          33.000  
G 3  23310508.241 1 122497570.82211     -2936.834          38.750  
G 4  24990759.228 1 131327325.53711      1065.487          26.500  
G 6  21331145.925 1 112095914.740 1       204.000          39.000  
G 9  24369688.786 1                      1818.300          25.250  
G14  20745280.711 1 109017202.505 1     -1948.426          37.250  
G17  21436705.548 1 112650647.804 1       542.419          37.000  
G19  21408484.285 1 112502352.330 1      1297.174          40.000  
G28  20327988.796 1 106824321.091 1      -311.262          34.000  
G30  24825551.698 1 130459171.593 1     -2381.329          29.250  
J 1  37435321.037 1 196724051.14411      -149.054          29.750    37432972.463 1                      -110.200          20.250  
J 2  35919697.781 1 188759326.624 1      -115.703          38.500    35917356.402 1 140947422.08111       -86.422          27.250  
J 3  39479026.609 1 207463679.31111       581.826          32.250    39476684.630 1                       434.250          28.250  
R 6  23078093.838 1                     -2105.700          21.500  
R 7  21135734.306 1 113141091.50211      1021.298          27.750  
R 8  21994759.315 1 117780848.746 1      3521.157          35.000  
R21  23587254.754 1 126220164.57411     -1527.224          26.500  
R22  21496511.745 1                      -731.700          23.750  
R23  22643605.228 1                       990.600          23.000  
> 2021  5 18  7 22 12.4406710  0 22                     
E13  24323975.700 1 127823330.70711      -792.495          29.750    24321841.477 1  95444121.528 1      -591.437          26.000  
E15  26693170.140 1 140273551.64111     -1575.358          35.000    26690922.596 1 104740912.96011     -1176.367          26.000  
E21  24190731.143 1 127123130.06211       250.169          32.000    24188609.811 1  94921294.107 1       187.088          33.500  
E26  25205001.278 1 132453203.452 1       627.813          39.000    25202879.647 1  98901508.997 1       468.867          36.500  
G 2  23546185.153 1 123736003.80911      1155.523          32.750  
G 3  23311077.714 1 122500508.62311     -2935.391          41.250  
G 4  24990559.733 1 131326259.98211      1065.821          26.000  
G 6  21331104.421 1 112095711.884 1       203.954          37.500  
G 9  24369367.875 1 128061892.16311      1818.121          29.000  
G14  20745654.120 1 109019151.996 1     -1948.546          38.000  
G17  21436624.171 1 112650107.24911       541.659          36.000  
G19  21408226.930 1 112501056.81911      1296.956          37.500  
G28  20328046.524 1 106824633.617 1      -311.831          33.750  
G30  24826002.753 1 130461553.44611     -2380.374          30.250  
J 1  37435341.590 1 196724202.19311      -150.632          29.500                                                                  
J 2  35919724.330 1 188759443.184 1      -115.332          39.750    35917378.154 1                       -84.250          28.750  
J 3  39478924.247 1 207463098.43211       582.007          33.750    39476575.073 1 154914558.98311       434.684          29.000  
R 6  23078468.446 1                     -2104.450          22.000  
R 7  21135498.237 1                      1024.150          22.500  
R 8  21994098.740 1 117777328.463 1      3521.510          32.250  
R21  23587525.334 1                     -1528.650          22.000  
R22  21496550.285 1                      -728.100          22.000  
> 2021  5 18  7 22 13.4406709  0 21                     
E13  24324083.222 1                      -790.300          29.750    24321959.193 1  95444594.232 1      -591.212          25.750  
E15  26693435.954 1 140274966.53111     -1571.233          37.000    26691193.206 1 104741969.20711     -1176.067          22.500  
E21  24190651.295 1 127122720.750 1       249.965          30.750    24188530.863 1  94920988.277 1       187.311          33.000  
E26  25204853.378 1 132452415.87211       627.862          40.500    25202729.648 1  98900921.077 1       468.831          35.500  
G 2  23545948.814 1 123734688.01611      1155.968          26.000  
G 3  23311603.148 1 122503283.770 1     -2935.391          43.000  
G 6  21331038.664 1 112095348.632 1       203.768          40.250  
G 9  24368982.239 1 128059913.44011      1818.457          28.500  
G14  20745993.382 1 109020941.389 1     -1949.729          36.500  
G17  21436495.458 1 112649406.34911       542.783          40.000  
G19  21407921.039 1 112499602.91311      1292.385          36.000  
G28  20328085.094 1 106824786.179 1      -312.452          35.500  
G30  24826410.968 1 130463774.15111     -2380.600          29.500  
J 1  37435340.888 1 196724191.936 1      -149.742          30.000                                                                  
J 2  35919714.634 1 188759399.074 1      -116.046          41.750    35917370.557 1 140947475.92511       -86.682          30.000  
J 3  39478779.045 1 207462357.25811       582.148          34.000    39476433.169 1                       433.300          24.000  
R 7  21135202.838 1                      1023.950          24.500  
R 8  21993405.817 1 117773644.721 1      3520.387          32.500  
R21  23587866.395 1                     -1526.550          22.250  
R22  21496655.410 1                      -730.300          23.500  
R23  22643206.869 1                       992.550          22.250  
> 2021  5 18  7 22 14.4406709  0 20                     
E13  24324269.382 1                      -789.650          28.750    24322112.076 1  95445185.775 1      -589.367          25.250  
E15  26693716.548 1 140276540.71711     -1574.574          34.250    26691493.287 1 104743146.130 1     -1175.919          25.750  
E21  24190602.718 1 127122472.159 1       250.089          30.000    24188484.084 1  94920802.802 1       186.619          32.500  
E26  25204740.644 1 132451789.17411       628.108          38.000    25202609.120 1  98900453.058 1       469.440          35.500  
G 2  23545709.868 1 123733533.21311      1155.380          31.000  
G 3  23312138.865 1 122506221.850 1     -2937.474          38.500  
G 6  21330997.881 1 112095146.027 1       204.508          39.250  
G 9  24368641.364 1 128058098.59411      1815.224          28.000  
G14  20746363.015 1 109022893.613 1     -1951.770          36.500  
G17  21436401.312 1 112648863.46111       543.807          39.250  
G19  21407653.613 1 112497978.447 1      1293.514          33.000  
G28  20328146.540 1 106825100.742 1      -313.571          35.000  
G30  24826881.031 1                     -2381.500          23.500  
J 1  37435366.958 1 196724344.289 1      -151.622          32.000    37433028.277 1                      -108.400          19.000  
J 2  35919734.109 1 188759518.235 1      -119.287          41.750    35917391.531 1 140947564.792 1       -88.969          26.750  
J 3  39478669.909 1 207461775.83111       583.469          31.000    39476324.333 1 154913575.64211       435.558          23.000  
R 7  21135101.497 1                      1021.500          23.750  
R 8  21992756.455 1 117770127.548 1      3517.057          34.250  
R13  22132048.725 1                      1972.200          18.500  
R22  21496790.605 1                      -725.250          24.500  
> 2021  5 18  7 22 15.4406709  0 21                     
E13  24324364.512 1 127825398.46011      -791.639          31.500    24322261.168 1  95445775.482 1      -589.126          25.750  
E15  26694028.428 1 140278114.17411     -1572.609          36.500    26691794.674 1                     -1174.850          21.500  
E21  24190560.243 1 127122223.162 1       249.059          31.750    24188437.712 1  94920616.755 1       186.174          34.500  
E26  25204555.468 1                       632.400          28.000    25202489.299 1  98899984.152 1       469.394          36.500  
G 2  23545486.918 1 123732379.884 1      1153.457          31.750  
G 3  23312709.766 1 122509161.112 1     -2939.346          35.500  
G 6  21330962.901 1 112094942.090 1       204.249          42.500  
G 9  24368311.388 1 128056285.019 1      1813.445          30.500  
G14  20746732.755 1 109024847.291 1     -1953.715          37.250  
G17  21436275.494 1 112648320.853 1       542.906          43.000  
G19  21407426.166 1 112496684.988 1      1294.060          34.000  
G28  20328206.894 1 106825415.698 1      -314.976          35.500  
G30  24827330.216 1                     -2383.050          25.500  
J 1  37435388.939 1 196724497.242 1      -152.661          33.250    37433059.551 1 146895365.69411      -113.763          25.000  
J 2  35919757.289 1 188759639.148 1      -120.841          40.750    35917415.610 1 140947655.207 1       -90.155          31.500  
J 3  39478560.580 1 207461193.338 1       583.174          31.500                                                                  
R 6  23079584.855 1                     -2113.450          18.500  
R 7  21134857.562 1                      1015.200          24.500  
R 8  21992116.494 1 117766612.578 1      3515.024          34.500  
R21  23588328.159 1                     -1524.550          20.500  
R23  22642811.227 1                       991.400          20.000  
> 2021  5 18  7 22 16.4406709  0 19                     
E13  24324519.078 1 127826186.90211      -789.133          30.500    24322411.537 1                      -589.350          23.000  
E15  26694319.699 1 140279686.86211     -1572.945          34.250    26692090.443 1 104745495.25011     -1174.482          21.750  
E21  24190507.652 1 127121973.44611       248.811          31.000    24188389.619 1  94920430.364 1       186.066          35.250  
E26  25204547.847 1                       629.050          30.750    25202369.855 1  98899514.548 1       469.426          36.750  
G 2  23545272.739 1 123731225.89211      1153.883          29.500  
G 3  23313293.035 1 122512100.73611     -2939.950          31.000  
G 6  21330927.698 1 112094737.365 1       204.093          42.000  
G 9  24368020.763 1 128054812.85311      1813.958          27.000  
G14  20747102.872 1 109026800.717 1     -1954.068          40.000  
G17  21436171.340 1 112647777.436 1       543.000          41.500  
G19  21407174.814 1 112495390.467 1      1293.885          33.500  
G28  20328264.028 1 106825730.428 1      -315.328          36.250  
G30  24827772.283 1 130470823.67111     -2383.769          27.000  
J 1  37435429.584 1 196724649.583 1      -152.719          33.000    37433090.603 1                      -110.100          23.750  
J 2  35919780.246 1 188759759.477 1      -120.602          40.750    35917439.466 1 140947745.055 1       -90.023          31.000  
J 3  39478464.520 1 207460607.86611       585.012          28.000    39476101.256 1                       436.550          23.250  
R 8  21991450.528 1 117763097.128 1      3515.174          35.000  
R21  23588620.330 1                     -1530.350          24.500  
R23  22642681.890 1                       992.250          24.750  
> 2021  5 18  7 22 17.4406708  0 22                     
E13  24324668.824 1 127826818.123 1      -789.629          33.000    24322534.901 1                      -592.400          21.750  
E15  26694607.650 1 140281101.02211     -1572.640          35.750                                                                  
E21  24190435.852 1 127121566.129 1       249.189          32.250    24188312.122 1  94920126.314 1       186.220          34.000  
E26  25204344.737 1                       629.250          37.500    25202222.806 1  98898927.099 1       469.759          37.500  
G 2  23545019.564 1 123729913.30711      1155.775          30.000  
G 3  23313846.302 1 122514881.33811     -2937.971          32.750  
G 6  21330855.598 1 112094375.090 1       204.289          41.500  
G 9  24367698.335 1 128053118.81811      1815.031          27.250  
G14  20747444.485 1 109028596.007 1     -1953.001          39.500  
G17  21436017.396 1 112647076.625 1       542.479          36.500  
G19  21406931.232 1 112493938.67311      1294.286          31.500  
G28  20328292.358 1 106825887.384 1      -314.716          35.750  
G30  24828210.429 1 130473048.54911     -2381.097          28.250  
J 1  37435412.345 1 196724643.44511      -151.103          30.500    37433086.855 1 146895472.84311      -112.838          26.500  
J 2  35919766.305 1 188759720.867 1      -118.541          38.500    35917430.922 1 140947716.241 1       -88.614          31.750  
J 3  39478284.194 1 207459866.15111       582.959          29.750    39475959.904 1                       433.050          26.250  
R 6  23080382.925 1                     -2114.900          19.500  
R 7  21134565.587 1                      1011.750          22.500  
R 8  21990761.155 1 117759419.756 1      3517.067          35.500  
R12  20283286.015 1                     -1515.800          14.500  
R21  23588894.790 1                     -1530.750          24.500  
R22  21497254.202 1                      -724.350          21.500  
> 2021  5 18  7 22 18.4406708  0 20                     
E13  24324812.385 1 127827607.910 1      -788.418          33.000                                                                  
E15  26694906.503 1 140282673.56911     -1568.698          35.000    26692667.353 1 104747728.78111     -1177.651          21.250  
E21  24190390.244 1 127121316.45011       251.278          32.750    24188265.015 1  94919940.563 1       187.137          34.750  
E26  25204228.078 1                       630.500          43.000    25202102.550 1  98898457.725 1       471.500          37.000  
G 2  23544813.567 1 123728757.96111      1157.179          30.500  
G 3  23314366.403 1 122517819.265 1     -2935.357          40.500  
G 6  21330812.988 1 112094171.349 1       205.327          40.500  
G14  20747822.484 1 109030548.888 1     -1950.292          40.000  
G17  21435948.104 1 112646534.23411       545.850          35.500  
G19  21406674.870 1 112492643.99311      1296.393          34.000  
G28  20328345.981 1 106826202.526 1      -312.997          34.250  
G30  24828661.578 1 130475430.24911     -2378.404          33.250  
J 1  37435459.973 1 196724795.135 1      -148.693          33.000    37433114.996 1                      -108.200          22.750  
J 2  35919795.346 1 188759839.260 1      -114.986          43.500    35917456.065 1 140947804.589 1       -85.947          35.250  
J 3  39478238.886 1                       584.150          24.500    39475848.341 1 154911707.44811       437.034          24.250  
R 7  21134337.405 1                      1021.400          25.500  
R 8  21990105.469 1 117755902.145 1      3520.923          35.750  
R21  23589153.771 1                     -1523.000          22.500  
R22  21497393.267 1                      -728.900          23.000  
R23  22642237.108 1                       993.650          23.750  
> 2021  5 18  7 22 19.4406708  0 21                     
E13  24324967.986 1 127828398.54811      -793.120          29.000    24322838.260 1                      -594.650          20.750  
E15  26695186.818 1 140284246.20711     -1567.321          35.000    26692965.056 1                     -1178.900          25.250  
E21  24190336.889 1 127121067.297 1       247.287          34.500    24188216.157 1  94919754.579 1       185.070          34.000  
E26  25204097.078 1 132448424.06511       627.161          35.500    25201982.342 1  98897987.727 1       468.781          39.250  
G 2  23544582.436 1 123727602.42111      1152.741          29.500  
G 3  23314891.947 1 122520756.47711     -2941.293          36.750  
G 6  21330778.820 1 112093967.382 1       202.352          39.000  
G 9  24366905.953 1                      1819.950          25.250  
G14  20748193.935 1 109032499.946 1     -1952.059          39.500  
G17  21435863.871 1 112645988.23711       544.534          35.750  
G19  21406439.241 1 112491347.18111      1295.112          31.500  
G28  20328403.250 1 106826516.785 1      -315.645          34.500  
G30  24829116.371 1 130477807.910 1     -2377.516          33.750  
J 1  37435484.864 1 196724943.85311      -149.840          31.000    37433145.284 1 146895702.14811      -111.954          24.500  
J 2  35919820.537 1 188759954.416 1      -115.650          43.250    35917476.159 1 140947890.654 1       -86.574          33.000  
J 3  39478077.906 1 207458699.54611       582.554          31.500    39475737.127 1                       431.600          26.000  
R 7  21134137.152 1                      1012.600          26.500  
R 8  21989444.135 1 117752381.365 1      3520.074          36.500  
R13  22130156.522 1                      1972.950          17.000  
R22  21497531.479 1                      -731.900          23.000  
R23  22642089.319 1 121119910.23511       991.223          27.000  
> 2021  5 18  7 22 20.4406708  0 19                     
E13  24325139.434 1                      -793.650          28.500                                                                  
E15  26695490.474 1                     -1567.100          33.250    26693251.024 1                     -1181.900          21.500  
E21  24190285.591 1 127120820.074 1       245.336          35.500    24188168.757 1  94919569.74311       182.954          29.500  
E26  25203981.924 1 132447795.68711       626.035          36.500    25201862.691 1  98897518.503 1       467.009          36.500  
G 2  23544365.053 1 123726449.185 1      1151.515          32.750  
G 3  23315471.113 1 122523695.83711     -2939.814          40.000  
G 6  21330734.118 1 112093765.209 1       199.635          39.250  
G 9  24366511.093 1 128046879.59011      1819.737          30.250  
G14  20748564.145 1 109034451.458 1     -1953.490          41.000  
G17  21435771.202 1 112645737.358 1       543.899          38.500  
G19  21406188.881 1 112490053.28911      1291.944          31.500  
G28  20328476.966 1 106826832.174 1      -317.659          36.000  
G30  24829548.039 1 130480183.37211     -2377.425          26.250  
J 2  35919845.386 1 188760068.754 1      -116.071          42.750    35917497.112 1 140947976.081 1       -86.574          31.250  
J 3  39477972.046 1 207458118.291 1       578.666          35.500    39475627.969 1 154910843.00411       432.246          26.250  
R 7  21133920.069 1 113131528.74711      1010.350          27.500  
R 8  21988780.062 1 117748860.026 1      3519.750          32.000  
R21  23589778.214 1                     -1529.450          22.000  
R23  22641932.194 1 121118919.68011       986.859          27.000  
> 2021  5 18  7 22 21.4406708  0 21                     
E13  24325275.659 1                      -792.150          23.250    24323144.734 1                      -595.300          21.250  
E15  26695792.185 1                     -1565.800          31.500    26693556.932 1                     -1178.450          23.000  
E21  24190238.943 1 127120575.86811       244.177          34.750    24188123.008 1  94919387.496 1       183.095          28.750  
E26  25203860.927 1 132447170.607 1       625.887          38.250    25201741.694 1  98897051.849 1       467.290          34.000  
G 2  23544155.018 1 123725297.821 1      1152.742          33.000  
G 3  23315991.372 1 122526361.56511     -2952.996          38.500  
G 6  21330700.660 1 112093566.657 1       199.123          39.750  
G 9  24366159.856 1 128045059.59111      1821.576          29.750  
G14  20748935.108 1 109036405.406 1     -1952.801          41.500  
G17  21435652.604 1 112645194.23411       541.817          34.500  
G19  21405950.366 1                      1289.800          28.250  
G28  20328532.547 1 106827150.829 1      -317.795          36.500  
G30  24830017.034 1 130482560.491 1     -2374.957          32.750  
J 2  35919869.189 1 188760184.896 1      -114.406          42.250    35917520.915 1 140948062.883 1       -85.447          31.250  
J 3  39477860.343 1 207457540.280 1       579.212          35.500    39475520.163 1                       433.050          26.250  
R 6  23081971.581 1                     -2111.650          17.000  
R 7  21133716.929 1                      1016.050          26.000  
R 8  21988133.229 1 117745340.17411      3520.644          25.500  
R21  23590002.878 1                     -1528.350          22.000  
R22  21497822.364 1                      -724.500          24.250  
R23  22641799.206 1 121118357.65211       996.022          28.500  
> 2021  5 18  7 22 22.4406707  0 21                     
E13  24325412.961 1                      -794.700          26.750                                                                  
E15  26696055.699 1                     -1567.500          34.500                                                                  
E21  24190168.189 1 127120174.377 1       243.499          34.000    24188045.958 1  94919087.591 1       181.732          27.750  
E26  25203710.428 1 132446387.986 1       624.438          37.250    25201594.493 1  98896467.478 1       466.254          35.750  
G 2  23543904.388 1 123723987.00611      1152.002          28.500  
G 3  23316570.268 1                     -2938.150          38.250  
G 6  21330635.002 1 112093210.517 1       197.633          39.750  
G 9  24365783.613 1 128043080.24511      1821.917          27.000  
G14  20749275.969 1 109038200.337 1     -1952.241          40.000  
G17  21435546.174 1                       543.600          36.000  
G19  21405678.151 1 112487597.06411      1296.909          27.500  
G28  20328565.221 1 106827310.975 1      -317.953          36.250  
G30  24830427.746 1 130484776.687 1     -2372.679          32.500  
J 1  37435572.186 1                      -147.800          24.750                                                                  
J 2  35919857.194 1 188760141.03711      -113.134          41.750    35917512.517 1 140948030.096 1       -84.406          32.250  
J 3  39477720.037 1 207456803.676 1       579.046          36.000    39475382.255 1 154909878.21611       432.510          24.000  
R 7  21133501.675 1                      1011.400          26.250  
R 8  21987448.800 1                      3521.950          25.000  
R13  22128986.815 1                      1967.250          19.000  
R22  21497880.521 1                      -728.800          24.750  
R23  22641603.438 1 121117196.612 1      1003.152          33.000  
> 2021  5 18  7 22 23.4406707  0 23                     
E13  24325532.823 1 127831538.20211      -797.557          30.500                                                                  
E15  26696355.436 1                     -1564.700          31.500                                                                  
E21  24190115.070 1 127119932.608 1       243.686          34.000    24188000.334 1  94918907.216 1       182.198          29.750  
E26  25203592.255 1 132445765.338 1       625.461          36.500    25201476.319 1  98896002.457 1       466.779          35.500  
G 2  23543722.958 1                      1153.400          23.000  
G 3  23317132.923 1 122532360.28311     -2937.651          39.500  
G 6  21330594.775 1 112093014.570 1       198.210          39.750  
G 9  24365446.291 1 128041259.34011      1824.445          26.500  
G14  20749646.157 1 109040153.118 1     -1950.545          38.000  
G17  21435426.502 1 112643925.68011       543.600          36.500  
G19  21405424.172 1 112486302.56211      1294.920          29.750  
G28  20328621.527 1 106827630.202 1      -317.061          34.750  
G30  24830888.172 1 130487148.54211     -2369.522          30.750  
J 1  37435585.922 1 196725479.03011      -148.387          27.250                                                                  
J 2  35919875.126 1 188760253.868 1      -110.240          41.750    35917533.747 1 140948114.282 1       -82.254          32.500  
J 3  39477626.147 1                       581.800          30.500    39475272.476 1                       435.400          21.000  
R 6  23082721.003 1                     -2119.250          19.000  
R 7  21133298.360 1 113128200.56011      1011.652          28.500  
R 8  21986864.449 1                      3517.200          24.500  
R13  22128647.095 1                      1980.250          24.500  
R21  23590642.277 1                     -1531.000          20.000  
R22  21498053.746 1 114758070.76711      -722.296          29.500  
R23  22641353.955 1                       993.950          24.750  
> 2021  5 18  7 22 24.4406707  0 20                     
E13  24325698.217 1 127832331.45511      -793.606          30.250                                                                  
E15  26696656.637 1 140291877.30611     -1575.449          31.500                                                                  
E21  24190073.908 1 127119685.53311       245.368          32.500    24187953.775 1  94918722.684 1       183.504          30.500  
E26  25203474.945 1 132445136.733 1       627.180          36.750    25201356.911 1  98895533.039 1       468.279          36.500  
G 3  23317655.071 1 122535297.52411     -2938.310          36.750  
G 6  21330554.812 1 112092812.595 1       200.546          40.250  
G 9  24365084.650 1 128039432.69411      1823.975          28.000  
G14  20750019.608 1 109042102.283 1     -1952.178          37.750  
G17  21435303.795 1 112643378.24211       544.113          33.750  
G19  21405183.048 1 112485006.86111      1291.881          28.250  
G28  20328685.891 1 106827944.808 1      -316.939          35.000  
G30  24831368.948 1                     -2373.250          23.500  
J 1  37435604.418 1 196725624.33111      -147.747          28.000                                                                  
J 2  35919894.522 1 188760363.318 1      -112.716          41.750    35917553.742 1 140948195.986 1       -84.135          33.500  
J 3  39477498.644 1 207455655.13911       583.046          30.500                                                                  
R 7  21133107.002 1 113127186.77411      1012.888          29.250  
R 8  21986195.821 1                      3512.650          28.000  
R13  22128262.970 1                      1978.300          24.000  
R21  23590882.319 1                     -1527.300          21.000  
R22  21498173.871 1 114758791.08011      -722.068          30.500  
> 2021  5 18  7 22 25.4406707  0 22                     
E13  24325838.937 1 127833125.60711      -795.921          31.750    24323722.103 1                      -597.750          18.000  
E15  26696945.154 1                     -1569.200          30.000                                                                  
E21  24190028.757 1 127119441.743 1       243.248          35.000    24187907.725 1  94918540.608 1       181.520          29.750  
E26  25203358.443 1 132444511.030 1       625.547          38.750    25201238.011 1  98895065.788 1       466.924          37.000  
G 2  23543234.923 1                      1142.350          20.750  
G 3  23318228.092 1 122538237.69711     -2941.557          36.500  
G 6  21330521.053 1 112092613.678 1       198.399          41.000  
G 9  24364749.000 1 128037610.55111      1822.151          30.000  
G14  20750388.470 1 109044055.650 1     -1953.294          39.250  
G17  21435220.271 1 112642836.25911       543.444          38.250  
G19  21404919.048 1 112483711.94111      1297.484          30.000  
G28  20328749.265 1 106828263.336 1      -318.637          36.000  
G30  24831787.876 1 130491925.77111     -2371.895          32.250  
J 1  37435621.024 1 196725773.77611      -148.554          33.000                                                                  
J 2  35919913.826 1 188760476.902 1      -112.828          41.250    35917576.044 1 140948280.75411       -83.736          30.250  
J 3  39477419.616 1 207455073.21811       582.752          28.250                                                                  
R 6  23083499.291 1                     -2117.400          22.250  
R 7  21132952.726 1 113126173.36211      1013.081          28.500  
R 8  21985531.898 1 117731524.54611      3514.245          33.750  
R13  22127913.529 1 118161823.48811      1978.200          28.250  
R22  21498325.684 1 114759513.33511      -723.510          32.000  
R23  22641029.307 1                       985.250          25.250  
> 2021  5 18  7 22 26.4406707  0 20                     
E13  24325998.191 1 127833924.94911      -797.108          29.750    24323873.862 1                      -589.500          22.500  
E15  26697220.728 1                     -1568.550          32.250                                                                  
E21  24189983.252 1 127119201.36011       241.931          34.500    24187861.021 1  94918361.140 1       180.718          28.750  
E26  25203237.691 1 132443888.398 1       625.059          36.000    25201119.957 1  98894600.980 1       465.931          34.000  
G 3  23318807.355 1 122541180.52111     -2939.825          35.500  
G 6  21330481.544 1 112092418.337 1       196.977          40.500  
G 9  24364388.414 1 128035789.36411      1822.539          27.750  
G14  20750763.274 1 109046011.175 1     -1953.322          38.000  
G17  21435111.510 1 112642294.16211       542.266          35.500  
G19  21404667.586 1 112482416.00211      1300.719          29.750  
G28  20328803.891 1 106828584.862 1      -319.562          35.750  
G30  24832253.218 1 130494299.083 1     -2370.360          30.750  
J 1  37435668.455 1 196725924.26911      -147.925          33.500    37433317.483 1                      -115.950          15.750  
J 2  35919942.670 1 188760592.44311      -112.553          32.500    35917600.691 1                       -85.050          24.500  
J 3  39477294.367 1 207454492.69711       581.054          28.500    39474934.700 1                       432.850          21.250  
R 7  21132757.625 1 113125164.08811      1011.144          28.500  
R 8  21984900.599 1 117728013.17611      3510.452          35.000  
R13  22127533.456 1                      1963.700          24.000  
R22  21498453.759 1 114760240.20111      -725.615          31.250  
R23  22640845.898 1                       985.100          22.000  
> 2021  5 18  7 22 27.4406706  0 20                     
E13  24326114.322 1 127834563.90411      -798.138          30.750    24323995.689 1  95452583.11511      -581.175          26.250  
E15  26697478.061 1                     -1574.750          28.000                                                                  
E21  24189905.418 1 127118800.41811       242.038          31.750    24187785.885 1  94918061.798 1       181.337          30.000  
E26  25203096.300 1 132443103.43811       627.011          33.000    25200970.772 1  98894016.240 1       466.601          31.250  
G 3  23319314.115 1 122543962.08411     -2941.140          30.750  
G 6  21330414.802 1 112092062.369 1       197.638          39.750  
G 9  24364016.783 1 128033806.73111      1826.456          29.500  
G14  20751105.749 1 109047805.076 1     -1951.715          37.750  
G17  21434955.730 1 112641595.47411       539.340          33.000  
G19  21404397.285 1 112480957.35511      1298.046          31.000  
G28  20328840.577 1 106828745.129 1      -318.303          35.000  
G30  24832661.647 1 130496509.38011     -2368.436          30.000  
J 1  37435687.154 1 196725911.27611      -141.983          27.000                                                                  
J 2  35919930.190 1 188760544.40711      -109.645          39.500    35917589.111 1 140948333.81811       -81.970          31.500  
J 3  39477153.276 1 207453752.90611       581.862          25.750    39474797.807 1 154907584.60311       434.827          26.000  
R 7  21132489.423 1 113123991.63311      1010.677          36.500  
R 8  21984168.617 1 117724340.41311      3516.103          33.750  
R13  22127150.133 1                      1964.050          22.000  
R22  21498582.482 1 114760805.01011      -724.908          30.750  
R23  22640601.678 1                       985.400          24.000  
> 2021  5 18  7 22 28.4406706  0 21                     
E13  24326265.309 1 127835358.73011      -790.037          37.250    24324143.078 1  95453164.44811      -583.676          26.000  
E15  26697769.950 1                     -1575.100          26.000                                                                  
E21  24189852.845 1                       240.650          28.500    24187740.208 1  94917880.973 1       180.001          30.750  
E26  25202973.876 1 132442478.06211       622.484          31.500    25200850.746 1  98893549.881 1       465.149          28.500  
G 2  23542577.544 1                      1143.200          18.000  
G 3  23319888.409 1 122546904.77011     -2942.195          31.000  
G 6  21330376.919 1 112091865.437 1       195.187          39.500  
G 9  24363721.978 1                      1812.500          26.500  
G14  20751480.681 1 109049758.79911     -1954.511          31.000  
G17  21434821.314 1 112640746.04411       533.749          36.000  
G19  21404141.153 1                      1295.250          38.250  
G28  20328891.133 1 106829063.919 1      -319.968          35.500  
G30  24833111.826 1 130498877.275 1     -2367.217          31.000  
J 1  37435710.129 1 196726053.49311      -144.857          30.500    37433387.037 1                      -110.150          19.500  
J 2  35919949.268 1 188760654.07711      -110.023          35.500    35917610.587 1 140948415.68111       -81.980          26.000  
J 3  39477022.158 1 207453170.48611       582.270          26.500    39474685.576 1                       433.850          25.250  
R 6  23084733.903 1                     -2120.950          19.250  
R 7  21132312.436 1 113122981.15311      1008.024          32.250  
R 8  21983501.470 1 117720817.10111      3524.198          32.750  
R13  22126777.383 1                      1966.050          24.000  
R22  21498687.000 1                      -730.450          25.750  
> 2021  5 18  7 22 29.4406706  0 20                     
E13  24326420.806 1 127836147.32411      -795.708          32.750    24324294.978 1                      -592.700          24.250  
E15  26698064.252 1                     -1576.250          25.750                                                                  
E21  24189813.477 1 127118328.10511       236.905          29.250    24187694.245 1  94917702.260 1       177.186          31.250  
E26  25202850.267 1 132441856.26211       619.118          33.000    25200731.633 1  98893085.465 1       462.790          30.500  
G 3  23320450.725 1 122549846.11011     -2943.009          28.500  
G 6  21330338.151 1 112091671.43311       191.434          39.000  
G 9  24363356.136 1                      1819.250          24.750  
G14  20751847.232 1 109051710.006 1     -1952.492          35.000  
G17  21434724.686 1 112640213.81711       530.000          35.500  
G19  21403894.329 1 112478223.19011      1278.957          34.000  
G28  20328950.098 1 106829384.17611      -322.183          33.500  
G30  24833552.726 1 130501242.20311     -2363.885          28.750  
J 1  37435742.112 1 196726197.58011      -145.159          30.000    37433417.221 1                      -105.400          22.250  
J 2  35919964.763 1 188760763.92111      -108.431          35.000    35917632.377 1                       -83.200          26.000  
J 3  39476927.029 1 207452589.02311       579.031          28.750    39474575.157 1 154906711.53211       431.339          27.000  
R 7  21132155.550 1 113121975.12811      1007.984          27.000  
R 8  21982819.947 1 117717002.56111      3524.103          33.250  
R13  22126396.551 1                      1954.500          23.000  
R22  21498795.730 1 114762030.99111      -726.680          26.750  
R23  22640244.122 1                       984.300          23.000  
> 2021  5 18  7 22 30.4406706  0 20                     
E13  24326587.382 1 127836949.71011      -801.278          31.000    24324444.166 1                      -601.400          24.500  
E15  26698397.512 1                     -1566.300          26.000                                                                  
E21  24189766.901 1 127118091.48511       238.381          30.000    24187649.467 1  94917525.887 1       175.578          27.250  
E26  25202731.440 1 132441237.639 1       617.649          38.750    25200615.505 1  98892623.559 1       461.576          35.000  
G 3  23320991.742 1 122552790.64511     -2947.906          28.500  
G 6  21330304.166 1 112091481.144 1       189.159          39.250  
G 9  24362972.593 1 128028284.82711      1830.957          26.750  
G14  20752214.969 1 109053662.55611     -1953.401          33.250  
G17  21434627.744 1 112639685.13411       526.782          35.500  
G19  21403661.582 1 112476947.45011      1275.348          32.500  
G28  20329016.543 1 106829706.58711      -322.682          34.250  
G30  24834052.371 1                     -2361.750          21.000  
J 1  37435770.783 1 196726340.85511      -142.538          29.500    37433444.694 1                      -106.050          25.500  
J 2  35919991.036 1 188760870.281 1      -106.176          36.500    35917651.455 1 140948578.16011       -79.086          26.500  
J 3  39476789.915 1 207452012.82911       574.834          26.000    39474466.224 1                       434.100          22.000  
R 7  21131938.092 1                      1010.400          25.750  
R 8  21982141.708 1 117713471.61511      3531.193          33.250  
R21  23592652.275 1                     -1531.950          16.250  
R22  21498937.423 1 114762759.80211      -728.983          26.500  
R23  22640095.916 1 121109246.49811       975.619          29.500  
> 2021  5 18  7 22 31.4406705  0 17                     
E13  24326704.790 1 127837598.31311      -803.258          30.250    24324566.371 1                      -598.000          24.000  
E15  26698622.246 1                     -1576.150          25.750                                                                  
E21  24189693.341 1                       233.500          29.000    24187573.809 1  94917233.724 1       175.775          27.500  
E26  25202591.926 1                       620.100          23.500    25200467.597 1  98892046.03911       461.430          23.750  
G 3  23321514.169 1 122555586.14311     -2953.893          28.750  
G 6  21330240.199 1 112091134.56911       190.540          36.250  
G 9  24362587.849 1                      1821.600          25.500  
G14  20752555.722 1 109055459.47311     -1954.788          33.000  
G17  21434498.723 1 112639001.93411       525.341          33.750  
G19  21403379.966 1 112475515.26311      1275.852          32.750  
G28  20329049.709 1 106829873.00411      -323.037          34.000  
J 1  37435761.079 1 196726326.58311      -143.248          29.500                                                                  
J 2  35919981.332 1 188760820.34611      -105.942          35.000    35917641.751 1                       -80.550          26.000  
J 3  39476672.586 1 207451281.88011       574.420          26.000                                                                  
R 7  21131724.529 1                      1004.300          22.000  
R 8  21981454.173 1 117709780.95211      3531.107          34.250  
R22  21499051.534 1 114763331.68911      -729.069          28.000  
> 2021  5 18  7 22 32.4406705  0 19                     
E13  24326870.084 1 127838395.25211      -797.203          29.250    24324755.947 1                      -592.650          33.750  
E15  26698916.450 1                     -1579.500          24.250                                                                  
E21  24189645.782 1                       233.050          26.000    24187529.847 1                       174.300          23.000  
G 3  23322036.216 1 122558127.50911     -2955.278          26.750  
G 6  21330203.733 1 112090944.25811       190.556          39.250  
G 9  24362245.294 1                      1816.300          24.000  
G14  20752932.069 1 109057410.79811     -1952.271          31.750  
G17  21434385.209 1                       531.300          30.500  
G19  21403164.223 1 112474236.65611      1281.845          30.500  
G28  20329101.681 1 106830195.362 1      -323.383          33.750  
G30  24834857.611 1                     -2365.100          19.750  
J 1  37435791.466 1 196726468.93111      -144.193          32.000    37433468.374 1                      -108.050          20.250  
J 2  35920001.826 1 188760925.68111      -107.436          32.000    35917662.545 1 140948621.87011       -80.424          23.250  
J 3  39476551.577 1                       581.050          24.500    39474220.391 1                       432.150          22.500  
R 7  21131605.919 1 113119140.80211      1006.149          27.500  
R 8  21980790.841 1 117706249.648 1      3529.446          35.000  
R12  20287405.047 1                     -1524.650          23.000  
R13  22125194.272 1                      1950.900          19.000  
R22  21499224.622 1 114764060.10211      -728.899          28.500  
> 2021  5 18  7 22 33.4406705  0 14                     
E13  24327024.036 1 127839190.30311      -796.247          31.750    24324907.202 1  95456160.12311      -592.444          31.000  
E21  24189606.668 1                       237.350          21.000                                                                  
G 6  21330161.921 1 112090752.86911       192.873          34.500  
G14  20753302.772 1 109059365.96511     -1955.040          31.250  
G17  21434293.932 1 112637974.39211       531.253          31.250  
G19  21402907.460 1 112472953.72311      1284.563          32.000  
G28  20329171.992 1 106830519.142 1      -322.845          36.500  
J 1  37435786.229 1 196726614.23211      -144.548          32.250    37433446.649 1                      -111.050          24.250  
J 2  35920018.173 1 188761034.834 1      -107.870          33.500    35917681.291 1                       -80.150          22.000  
J 3  39476441.713 1 207450100.57011       580.832          27.250    39474106.929 1                       433.100          28.500  
R 7  21131390.227 1 113118132.26811      1006.452          30.750  
R 8  21980147.645 1 117702722.020 1      3527.987          36.250  
R12  20287663.927 1 108373058.40311     -1528.598          33.500  
R22  21499349.195 1                      -724.600          25.000  
> 2021  5 18  7 22 34.4406705  0 14                     
E13  24327178.694 1 127839985.13011      -792.824          30.500    24325060.960 1                      -594.650          26.500  
E21  24189570.358 1                       237.650          25.750                                                                  
G 3  23323201.333 1                     -2952.750          21.500  
G 6  21330136.703 1 112090560.46811       193.546          30.500  
G14  20753681.374 1 109061320.82811     -1953.266          31.500  
G17  21434203.059 1 112637443.040 1       531.605          32.250  
G19  21402652.001 1 112471670.18511      1281.573          30.750  
G28  20329232.215 1 106830841.937 1      -322.792          35.500  
J 1  37435819.471 1 196726758.42511      -144.049          30.250                                                                  
J 2  35920043.321 1 188761142.51311      -106.918          33.750    35917702.241 1                       -78.000          23.750  
J 3  39476337.649 1 207449519.68311       580.197          32.000    39473998.069 1 154904446.22111       433.520          29.250  
R 7  21131182.436 1                      1011.450          25.000  
R 8  21979485.968 1 117699192.843 1      3529.861          35.000  
R12  20287904.025 1                     -1532.450          24.750  
> 2021  5 18  7 22 35.4406705  0 13                     
E13  24327312.652 1                      -793.500          27.750                                                                  
G 6  21330091.985 1                       187.900          24.500  
G 9  24361263.248 1                      1818.650          19.000  
G14  20754041.976 1 109063274.31911     -1954.437          33.500  
G17  21434086.691 1 112636912.098 1       530.203          34.250  
G19  21402408.521 1 112470391.44411      1278.116          32.500  
G28  20329299.319 1 106831164.71111      -323.703          34.750  
J 1  37435845.504 1 196726902.30911      -144.199          30.500                                                                  
J 2  35920061.859 1 188761248.982 1      -106.863          32.500    35917722.578 1                       -83.400          22.500  
J 3  39476207.490 1 207448939.51011       579.570          26.500    39473884.998 1                       440.550          22.000  
R 7  21131009.706 1 113115949.33011      1005.066          27.750  
R 8  21978795.796 1 117695663.127 1      3529.228          33.250  
R12  20288297.604 1                     -1529.400          25.250  
> 2021  5 18  7 22 36.4406704  0 14                     
E13  24327436.107 1                      -796.800          26.500                                                                  
G 3  23324297.565 1                     -2944.950          19.250  
G 6  21330023.273 1 112090028.30211       190.593          26.000  
G14  20754391.474 1 109065071.04111     -1954.266          34.500  
G17  21433956.821 1 112636223.90811       530.192          35.000  
G19  21402138.049 1 112468954.92511      1277.816          33.500  
G28  20329325.941 1 106831331.54011      -324.431          35.500  
J 1  37435844.245 1 196726888.34711      -144.483          32.750    37433502.866 1                      -110.300          19.000  
J 2  35920046.210 1 188761198.03111      -106.397          32.000    35917715.623 1 140948830.25111       -79.343          24.000  
J 3  39476078.520 1 207448202.80711       579.238          31.250    39473744.936 1 154903453.58811       432.980          32.000  
R 7  21130734.438 1 113114475.70011      1004.408          28.000  
R 8  21978134.395 1 117691972.824 1      3529.816          33.000  
R12  20288469.625 1                     -1528.250          25.750  
R22  21499696.510 1                      -729.700          19.000  
> 2021  5 18  7 22 37.4406704  0 12                     
E13  24327573.228 1                      -793.650          22.000    24325458.192 1                      -592.900          18.750  
G 6  21329996.407 1                       189.400          22.750  
G14  20754759.136 1 109067027.42211     -1954.950          35.000  
G17  21433854.408 1 112635697.22511       528.206          33.500  
G19  21401899.230 1 112467681.33211      1275.540          33.500  
G28  20329388.414 1 106831658.11211      -325.318          34.000  
J 1  37435876.738 1 196727036.33111      -145.369          30.500                                                                  
J 2  35920076.905 1                      -106.850          30.250    35917731.029 1                       -74.350          22.000  
J 3  39475976.107 1 207447625.81511       578.142          31.000    39473635.327 1 154903023.096 1       432.135          32.000  
R 7  21130573.265 1 113113473.56111      1003.066          29.000  
R 8  21977465.673 1 117688445.77411      3529.465          34.500  
R12  20288801.611 1                     -1539.050          22.500  
> 2021  5 18  7 22 38.4406704  0 11                     
E13  24327743.149 1                      -798.900          24.250                                                                  
G14  20755133.216 1 109068982.19411     -1954.317          36.500  
G17  21433759.013 1 112635169.06811       527.390          33.000  
G19  21401647.343 1 112466404.56311      1275.312          32.500  
G28  20329450.410 1 106831983.05411      -325.565          33.750  
J 1  37435891.667 1 196727180.05011      -142.918          32.500                                                                  
J 2  35920102.326 1 188761411.63911      -104.486          31.000    35917749.555 1                       -79.650          21.000  
J 3  39475865.722 1 207447047.12511       578.431          32.000    39473525.542 1 154902591.008 1       431.811          32.000  
R 7  21130426.306 1 113112826.35111      1001.902          29.250  
R 8  21976814.463 1 117684914.81711      3531.070          33.500  
R12  20289075.561 1                     -1530.050          23.000  
> 2021  5 18  7 22 39.4406704  0 13                     
E13  24327897.555 1                      -790.950          23.500    24325762.433 1                      -600.150          21.500  
E21  24189312.195 1                       240.850          17.250                                                                  
G14  20755510.067 1 109070935.17411     -1955.091          36.000  
G17  21433660.393 1 112634640.72911       526.361          35.000  
G19  21401403.624 1 112465130.87011      1271.148          32.000  
G28  20329523.871 1 106832307.14111      -326.538          33.250  
J 1  37435920.759 1 196727321.19011      -142.093          32.000                                                                  
J 2  35920113.131 1 188761512.89811      -102.336          28.500                                                                  
J 3  39475760.208 1 207446467.887 1       577.127          33.000    39473415.231 1 154902158.505 1       430.934          31.500  
R 7  21130209.268 1 113111822.15711      1002.558          30.750  
R 8  21976162.727 1 117681380.79911      3532.587          30.500  
R12  20289366.372 1                     -1533.700          25.500  
R22  21500130.077 1                      -736.650          19.750  
> 2021  5 18  7 22 40.4406703  0 12                     
E13  24328010.823 1                      -804.750          22.500    24325885.894 1                      -600.450          24.250  
E21  24189239.892 1                       234.500          24.750    24187115.563 1                       173.500          17.000  
G14  20755849.079 1 109072733.23511     -1955.632          35.500  
G17  21433527.832 1 112633957.968 1       524.621          36.750  
G19  21401132.559 1 112463702.947 1      1270.504          32.500  
G28  20329544.204 1 106832476.28411      -327.183          33.750  
J 1  37435912.612 1 196727306.04711      -143.224          30.500    37433578.128 1                      -111.050          19.000  
J 2  35920100.786 1 188761457.98511      -104.304          27.750    35917767.801 1                       -82.400          20.750  
J 3  39475605.162 1 207445733.658 1       575.951          30.250    39473275.175 1 154901610.21511       429.586          25.500  
R 7  21129995.763 1 113110661.61511       998.015          27.000  
R 8  21975459.960 1 117677688.71111      3530.391          29.250  
R12  20289615.746 1                     -1538.450          25.250  
> 2021  5 18  7 22 41.4406703  0 12                     
E13  24328165.834 1                      -804.650          21.500    24326045.702 1                      -599.900          22.000  
E21  24189190.745 1                       231.900          25.500                                                                  
G14  20756219.341 1 109074689.55011     -1956.747          34.000  
G17  21433426.520 1 112633433.00711       524.716          35.250  
G19  21400894.542 1 112462430.11211      1281.248          30.500  
G28  20329610.177 1 106832805.41311      -329.322          34.750  
J 1  37435954.901 1 196727450.02611      -143.124          26.000    37433606.326 1 146897511.32511      -109.647          23.000  
J 2  35920107.100 1 188761563.03311      -105.018          27.750    35917779.512 1                       -82.050          21.750  
J 3  39475504.150 1 207445158.23911       575.771          28.250                                                                  
R 7  21129801.516 1 113109661.86411      1000.312          29.500  
R 8  21974804.332 1 117674158.57111      3531.006          28.750  
R12  20289914.058 1 108385078.58411     -1536.469          26.500  
> 2021  5 18  7 22 42.4406703  0 11                     
E13  24328310.283 1                      -798.950          22.000    24326193.748 1                      -598.650          21.750  
G14  20756587.435 1 109076648.05611     -1957.158          34.500  
G17  21433334.433 1 112632910.81811       524.294          35.750  
G19  21400654.057 1                      1278.150          31.500  
G28  20329671.583 1 106833136.27711      -328.362          34.750  
J 1  37435968.040 1 196727593.99811      -143.187          29.000                                                                  
J 2  35920138.827 1 188761668.80311      -105.113          28.000                                                                  
J 3  39475405.467 1 207444582.77811       577.260          26.750                                                                  
R 7  21129616.792 1 113108663.04611      1001.040          30.000  
R 8  21974151.033 1 117670629.78111      3531.363          27.500  
R12  20290179.023 1 108386616.16011     -1536.916          28.750  
> 2021  5 18  7 22 43.4406703  0 13                     
E13  24328487.544 1                      -807.400          23.000    24326350.623 1                      -602.300          21.750  
E21  24189105.636 1                       232.050          22.000    24186980.707 1                       174.650          20.000  
G14  20756966.457 1 109078604.98911     -1955.968          34.750  
G17  21433227.191 1 112632387.173 1       523.811          36.250  
G19  21400403.215 1 112459877.80011      1267.577          30.250  
G28  20329728.028 1 106833464.81111      -329.260          34.750  
J 1  37435981.615 1 196727411.07111      -143.178          28.000                                                                  
J 2  35920149.104 1 188761774.33211      -103.669          26.500                                                                  
J 3  39475289.531 1 207444007.32211       577.045          26.000                                                                  
R 7  21129455.288 1 113107662.24811       999.517          27.250  
R 8  21973478.383 1 117667098.64311      3532.008          29.000  
R12  20290513.375 1                     -1536.650          23.500  
R22  21500612.142 1                      -740.150          17.000  
> 2021  5 18  7 22 44.4406703  0 15                     
E13  24328616.715 1                      -810.550          24.500    24326502.279 1                      -602.600          22.000  
E15  26702477.726 1                     -1567.750          14.250                                                                  
E21  24189063.626 1                       225.500          23.000    24186940.795 1                       175.350          22.000  
G 9  24358128.585 1                      1823.900          15.750  
G14  20757334.263 1 109080559.54111     -1955.433          33.750  
G17  21433127.321 1 112631861.830 1       523.886          35.000  
G19  21400163.641 1 112458607.92111      1268.438          31.000  
G28  20329793.943 1 106833792.549 1      -329.068          35.000  
J 1  37436019.649 1 196727551.39711      -141.776          30.000                                                                  
J 2  35920181.742 1 188761876.01911      -102.164          29.500    35917840.063 1                       -76.000          19.000  
J 3  39475195.357 1                       578.200          24.000                                                                  
R 7  21129246.293 1 113106662.20711       998.815          29.000  
R 8  21972828.993 1 117663563.05611      3533.607          26.500  
R12  20290739.380 1                     -1534.050          22.500  
R13  22120844.624 1                      1936.750          14.750  
> 2021  5 18  7 22 45.4406702  0 13                     
E13  24328746.607 1                      -807.650          25.750    24326624.676 1                      -600.300          23.000  
E21  24188990.858 1                       228.450          22.000    24186864.730 1                       171.900          23.500  
G 3  23329415.430 1                     -2943.500          20.500  
G14  20757686.601 1 109082358.50311     -1954.332          34.500  
G17  21433002.089 1 112631181.885 1       524.378          36.500  
G19  21399895.109 1 112457182.829 1      1269.674          32.000  
G28  20329832.098 1 106833964.19311      -326.857          35.500  
J 1  37436026.626 1 196727536.89511      -139.203          31.000                                                                  
J 2  35920180.025 1 188761820.94411      -100.950          30.000                                                                  
J 3  39475034.450 1 207442705.99911       578.739          27.000    39472693.971 1                       436.500          18.500  
R 7  21129062.902 1                       997.950          26.000  
R 8  21972134.756 1                      3533.550          24.000  
R12  20291029.960 1                     -1532.950          24.000  
> 2021  5 18  7 22 46.4406702  0 14                     
E13  24328890.536 1                      -803.450          22.500                                                                  
E21  24188943.220 1                       223.600          23.250                                                                  
G 3  23329902.021 1                     -2965.150          23.000  
G 6  21329620.787 1                       189.250          16.250  
G14  20758047.879 1 109084311.68211     -1955.686          35.500  
G17  21432901.388 1 112630655.98511       521.761          35.750  
G19  21399652.905 1                      1283.350          32.500  
G28  20329891.485 1 106834291.60311      -330.057          35.500  
J 1  37436047.340 1 196727675.69111      -141.564          28.750                                                                  
J 2  35920183.951 1 188761920.56211      -103.132          26.750                                                                  
J 3  39474939.744 1 207442125.87411       578.502          26.250    39472592.070 1 154898928.84411       429.990          24.000  
R 7  21128844.682 1                       992.300          23.500  
R 8  21971483.935 1                      3510.500          20.500  
R12  20291305.198 1                     -1540.400          26.500  
> 2021  5 18  7 22 47.4406702  0 10                     
E13  24329060.572 1                      -813.900          23.000    24326934.444 1                      -605.950          21.250  
E21  24188896.506 1                       222.200          23.500                                                                  
G 3  23330484.872 1                     -2964.700          25.250  
G 6  21329554.587 1                       190.300          25.000  
G14  20758402.887 1                     -1965.750          23.750  
G17  21432807.007 1 112630137.854 1       518.963          34.750  
G19  21399405.331 1                      1267.350          30.500  
G28  20329957.194 1 106834624.87111      -332.554          34.750  
J 3  39474825.578 1 207441551.42511       573.806          26.000    39472481.500 1                       436.400          22.250  
R12  20291623.332 1                     -1538.250          25.000  
> 2021  5 18  7 22 48.4406702  0  5                     
E13  24329223.702 1                      -817.200          23.000                                                                  
G 3  23331047.025 1                     -2970.200          23.000  
G17  21432699.124 1 112629619.88211       516.814          30.250  
G19  21399172.734 1 112453410.77211      1261.377          31.500  
J 3  39474708.401 1                       572.300          21.500                                                                  
> 2021  5 18  7 22 49.4406701  0  1                     
G19  21398910.281 1                      1268.150          23.250  
> 2021  5 18  7 22 56.4406700  0  1                     
E15  26706035.063 1                     -1577.150          12.750                                                                  
> 2021  5 18  7 23  0.4406699  0  1                     
E13  24330998.201 1                      -806.600          11.500                                                                  
> 2021  5 18  7 25 33.4406662  0  1                     
G 2  23502193.809 1                      1115.650          28.250  
> 2021  5 18  7 25 34.4406662  0  9                     
E21  24182324.998 1                       146.050          20.500                                                                  
G 2  23501993.082 1 123503806.47411      1115.335          30.000  
G 6  21324124.089 1 112059027.84911       130.307          30.500  
G14  20820871.784 1 109414418.91911     -2057.360          28.250  
G17  21416142.086 1                       465.100          24.250  
G19  21359232.484 1                      1219.850          33.250  
G28  20341118.710 1                      -437.150          26.000  
R 7  21098807.872 1                       821.700          26.000  
R12  20340790.737 1                     -1653.550          35.500  
> 2021  5 18  7 25 35.4406662  0 14                     
E13  24354794.952 1                      -842.450          33.000                                                                  
E15  26753527.944 1                     -1510.950          24.750                                                                  
E21  24182296.471 1 127078912.90311       146.934          33.000                                                                  
G 2  23501778.384 1 123502688.58011      1117.351          30.000  
G 3  23426238.179 1                     -2978.650          27.500  
G 6  21324099.759 1 112058896.12711       130.053          30.500  
G14  20821249.175 1 109416474.60811     -2058.418          32.000  
G17  21416068.291 1                       547.950          24.750  
G19  21358999.798 1 112242300.93111      1220.381          34.500  
G28  20341187.915 1 106893865.70811      -439.971          27.250  
J 2  35922435.641 1 188773673.39511      -133.761          30.250                                                                  
J 3  39455640.255 1                       545.950          24.750                                                                  
R 7  21098591.075 1                       814.100          28.250  
R12  20341111.767 1                     -1652.350          34.000  
> 2021  5 18  7 25 36.4406645  0 17                     
E13  24354440.931 1 127983360.21111      -842.421          31.000                                                                  
E15  26753324.718 1                     -1509.300          21.750                                                                  
E21  24181757.177 1 127076089.24111       150.195          33.000                                                                  
E26  25180188.677 1                       611.900          23.000                                                                  
G 2  23501054.418 1 123498892.45611      1122.467          27.500  
G 3  23426293.074 1 123106000.33211     -2976.107          26.500  
G 6  21323567.361 1 112056089.59711       132.722          31.000  
G14  20821140.384 1 109415856.38011     -2057.488          31.000  
G17  21415479.531 1 112539104.08911       547.696          26.500  
G19  21358255.147 1 112238402.97911      1223.543          34.500  
G28  20340761.643 1 106891628.89511      -437.968          26.750  
J 1  37439276.387 1                      -192.100          25.000                                                                  
J 2  35921955.707 1 188771131.85211      -133.938          28.750                                                                  
J 3  39455020.617 1 207337416.68311       549.080          27.750                                                                  
R 7  21097913.278 1 112938781.10811       814.620          27.250  
R 8  21857998.382 1                      3462.400          23.500  
R12  20340902.545 1 108657450.30811     -1649.519          31.500  
> 2021  5 18  7 25 37.4406645  0 13                     
E13  24354603.435 1 127984198.95811      -840.173          32.000                                                                  
E21  24181726.015 1 127075936.310 1       151.822          32.500                                                                  
G 2  23500851.175 1 123497765.97811      1126.416          28.500  
G 3  23426892.975 1 123108971.90911     -2972.887          28.500  
G 6  21323535.299 1 112055953.06511       136.288          32.250  
G14  20821539.424 1 109417911.52411     -2057.275          30.750  
G17  21415378.817 1                       466.000          28.750  
G19  21358019.526 1 112237177.67011      1224.975          36.750  
G28  20340864.788 1 106892064.02311      -437.239          27.750  
J 2  35921968.914 1 188771263.68311      -133.981          31.250                                                                  
J 3  39454900.417 1 207336864.613 1       550.229          28.500                                                                  
R 7  21097785.882 1                       817.850          23.750  
R12  20341216.145 1 108659095.57111     -1647.786          32.000  
> 2021  5 18  7 25 38.4406645  0 16                     
E13  24354763.636 1 127985038.50011      -834.220          32.500                                                                  
E15  26753946.616 1                     -1507.000          28.250                                                                  
E21  24181699.746 1 127075784.115 1       156.659          33.500    24179579.314 1  94885861.76211       117.649          28.750  
E26  25179960.664 1                       622.500          25.750                                                                  
G 2  23500633.038 1 123496640.67411      1129.696          27.750  
G 3  23427477.383 1 123112223.77011     -2974.258          31.000  
G 6  21323510.229 1 112055817.02711       141.502          32.000  
G14  20821931.965 1 109419970.49711     -2054.879          28.000  
G17  21415294.088 1 112538129.49511       468.448          29.500  
G19  21357787.000 1 112235951.85511      1230.915          34.750  
G28  20340935.052 1 106892502.87011      -435.021          28.500  
J 2  35921995.408 1 188771399.84711      -131.944          32.500                                                                  
J 3  39454797.400 1 207336315.65211       553.820          28.250                                                                  
R 7  21097631.901 1                       809.700          24.000  
R 8  21856704.606 1                      3470.200          28.000  
R12  20341519.647 1 108660743.84811     -1641.397          32.250  
> 2021  5 18  7 25 39.4406644  0 16                     
E13  24354887.229 1 127985708.77711      -829.151          31.500    24352770.694 1                      -577.550          21.250  
E21  24181636.568 1 127075462.31211       161.522          31.500    24179517.934 1  94885621.56011       123.057          29.750  
E26  25179793.458 1 132320707.62911       625.214          29.750    25177674.225 1  98802600.61811       460.702          27.000  
G 2  23500381.890 1                      1136.000          24.500  
G 3  23428052.763 1                     -2974.900          24.750  
G 6  21323452.447 1 112055512.14311       150.754          27.000  
G14  20822278.303 1                     -2052.350          24.750  
G17  21415171.252 1                       552.950          31.500  
G19  21357522.361 1 112234555.57311      1239.579          34.250  
G28  20340986.394 1 106892774.26611      -428.666          30.750  
J 1  37439342.249 1                      -187.450          25.750    37437000.270 1                      -142.700          26.500  
J 2  35921985.293 1 188771368.85611      -126.872          28.250                                                                  
J 3  39454649.081 1                       560.000          25.500    39452329.587 1                       473.700          23.500  
R 7  21097458.400 1                       817.200          22.750  
R12  20341798.532 1 108662218.23111     -1636.900          31.750  
R22  21524621.281 1                      -675.600          20.750  
> 2021  5 18  7 25 40.4406644  0 17                     
E13  24355050.995 1 127986538.39511      -829.190          31.500    24352928.165 1                      -620.700          25.000  
E21  24181607.867 1 127075302.25411       163.281          29.500    24179488.035 1  94885499.49411       121.878          29.750  
E26  25179672.422 1 132320080.53211       628.803          31.000    25177556.187 1  98802136.82611       467.601          31.750  
G 2  23500153.828 1 123494141.71311      1133.803          39.000  
G 3  23428612.555 1 123118189.76311     -2976.785          26.750  
G 6  21323430.043 1 112055358.83711       154.556          29.500  
G 9  24294992.373 1                      1771.500          22.500  
G14  20822665.415 1 109423844.53111     -2053.060          27.500  
G17  21415082.593 1                       471.800          28.500  
G19  21357279.010 1 112233319.44311      1236.830          31.750  
G28  20341072.815 1 106893205.57911      -431.266          33.000  
J 1  37439337.532 1                      -190.850          22.500    37437042.021 1                      -143.000          25.000  
J 2  35922031.242 1 188771499.61911      -128.639          26.500                                                                  
J 3  39454537.938 1                       555.400          25.000                                                                  
R 7  21097317.877 1                       811.550          25.000  
R 8  21855379.082 1                      3462.100          22.000  
R12  20342101.103 1 108663858.47411     -1639.034          31.250  
> 2021  5 18  7 25 41.4406644  0 16                     
E13  24355203.564 1                      -828.000          26.750    24353087.929 1  95566746.84211      -619.384          24.500  
E21  24181576.064 1 127075145.69011       157.234          31.000    24179456.232 1  94885378.98511       120.008          31.500  
E26  25179555.177 1 132319458.72711       622.276          36.500    25177438.643 1  98801672.211 1       464.332          36.500  
G 2  23499943.049 1 123493008.179 1      1133.870          39.500  
G 6  21323405.734 1 112055208.71911       147.155          31.000  
G14  20823095.592 1                     -2067.650          22.500  
G17  21415001.923 1 112536594.33211       470.806          30.000  
G19  21357045.746 1                      1238.200          30.000  
G28  20341160.928 1 106893640.04011      -436.466          30.000  
J 1  37439423.847 1                      -193.200          23.250    37437085.766 1                      -143.800          22.500  
J 3  39454437.482 1 207334468.21111       555.769          29.500    39452116.489 1                       421.200          21.250  
R 6  23165497.581 1                     -2202.000          19.750  
R 7  21097182.345 1                       812.850          22.500  
R12  20342417.358 1 108665499.11711     -1642.512          35.250  
R22  21524860.570 1                      -774.750          20.000  
R23  22604372.739 1                      1003.900          22.000  
> 2021  5 18  7 25 42.4406643  0 15                     
E13  24355334.658 1 127988147.13611      -826.721          33.750    24353214.825 1  95567248.22011      -618.711          28.000  
E21  24181516.489 1 127074827.07311       162.290          31.000    24179395.758 1  94885140.833 1       121.715          31.000  
E26  25179410.762 1 132318678.38411       624.855          39.500    25177288.831 1  98801089.452 1       466.151          35.000  
G 2  23499699.402 1 123491716.28911      1136.725          42.000  
G 3  23429746.429 1                     -3086.650          20.250  
G 6  21323339.564 1 112054904.05311       148.631          32.500  
G14  20823417.953 1                     -2053.500          21.750  
G17  21414865.302 1 112535966.46411       471.291          30.750  
G19  21356788.608 1 112230680.93211      1238.167          38.250  
G28  20341204.482 1 106893918.023 1      -434.347          31.000  
J 3  39454318.848 1 207333756.25311       556.163          26.750    39451976.270 1                       416.450          22.500  
R 6  23165885.296 1                     -2200.950          19.000  
R12  20342692.352 1 108666981.125 1     -1640.725          34.250  
R22  21525059.117 1                      -770.350          23.250  
R23  22604142.882 1                       994.750          23.750  
> 2021  5 18  7 25 43.4406643  0 16                     
E13  24355492.365 1 127988975.555 1      -828.698          35.000    24353371.633 1  95567866.580 1      -618.636          27.750  
E21  24181485.327 1 127074663.91611       162.729          30.750    24179364.895 1  94885019.081 1       121.980          31.750  
E26  25179290.861 1 132318053.50511       624.155          38.750    25177171.628 1  98800622.638 1       467.027          36.500  
G 2  23499487.465 1 123490579.484 1      1136.432          40.250  
G 6  21323315.297 1 112054755.32911       147.419          36.750  
G14  20823832.282 1                     -2057.950          23.000  
G17  21414791.570 1 112535495.444 1       470.509          31.500  
G19  21356554.486 1 112229443.577 1      1236.676          39.500  
G28  20341290.239 1 106894352.349 1      -435.009          32.000  
J 3  39454211.539 1 207333199.10111       556.001          27.500    39451870.460 1                       411.200          22.000  
R 6  23166257.655 1                     -2205.550          20.500  
R 7  21096846.379 1                       887.700          25.000  
R12  20343001.455 1 108668621.771 1     -1641.587          33.500  
R13  22057575.380 1                      1816.250          19.250  
R22  21525187.144 1                      -768.150          22.500  
R23  22604048.464 1                       923.200          23.250  
> 2021  5 18  7 25 44.4406643  0 16                     
E13  24355648.839 1 127989805.520 1      -830.688          36.000    24353532.005 1  95568486.391 1      -620.108          30.000  
E21  24181454.731 1 127074503.49111       159.326          30.500    24179335.199 1  94884899.252 1       119.371          31.750  
E26  25179169.428 1 132317430.303 1       622.236          39.500    25177052.294 1  98800157.526 1       464.413          36.000  
G 2  23499264.402 1 123489444.59911      1132.560          37.500  
G 3  23430919.816 1                     -3091.400          24.250  
G 6  21323277.806 1 112054609.94211       143.656          34.750  
G17  21414694.420 1 112535026.244 1       468.909          31.500  
G19  21356317.034 1 112228208.150 1      1234.980          38.500  
G28  20341376.562 1 106894789.321 1      -437.798          31.500  
J 1  37439478.792 1                      -195.850          24.500                                                                  
J 3  39454114.689 1 207332644.261 1       554.595          28.750    39451767.914 1                       423.550          23.500  
R 6  23166674.949 1                     -2205.600          19.750  
R12  20343300.330 1 108670265.226 1     -1644.608          35.000  
R13  22057210.515 1                      1816.550          20.000  
R22  21525368.502 1 114903878.20811      -773.631          26.500  
R23  22603803.517 1                       988.950          27.250  
> 2021  5 18  7 25 45.4406643  0 17                     
E13  24355805.411 1 127990636.469 1      -830.412          34.750    24353688.576 1  95569106.932 1      -619.904          29.000  
E21  24181424.532 1 127074345.10411       158.191          31.500    24179305.599 1  94884781.068 1       117.339          32.000  
E26  25179050.191 1 132316809.45211       620.485          37.000    25176933.656 1  98799693.870 1       463.108          37.000  
G 2  23499050.730 1 123488314.46411      1129.943          38.000  
G 6  21323259.899 1 112054467.27011       140.843          34.500  
G14  20824588.122 1                     -2060.400          21.000  
G17  21414610.858 1 112534558.096 1       469.012          31.000  
G19  21356088.372 1 112226973.943 1      1234.659          38.750  
G28  20341463.282 1 106895228.511 1      -439.844          32.000  
J 1  37439521.143 1 196746010.99711      -197.972          31.250    37437182.162 1                      -146.350          20.500  
J 3  39453993.953 1 207332090.59811       554.126          25.750    39451660.068 1                       414.300          23.250  
R 6  23167091.740 1                     -2206.450          19.500  
R 7  21096491.487 1                       805.350          24.000  
R12  20343605.000 1 108671911.58711     -1647.556          34.250  
R13  22056867.932 1                      1815.250          20.500  
R22  21525481.903 1                      -770.250          22.000  
R23  22603613.228 1 120914088.57711       989.612          28.500  
> 2021  5 18  7 25 46.4406642  0 19                     
E13  24355934.571 1 127991307.337 1      -830.187          35.000    24353815.338 1  95569607.865 1      -619.151          31.500  
E15  26756355.394 1                     -1623.300          17.750                                                                  
E21  24181363.923 1 127074029.33011       156.341          32.750    24179246.189 1  94884545.202 1       116.976          31.750  
E26  25178902.042 1 132316030.489 1       619.491          35.500    25176785.807 1  98799112.161 1       463.120          37.500  
G 2  23498799.753 1 123487025.439 1      1129.773          37.500  
G 3  23432048.564 1                     -3090.250          21.750  
G 6  21323206.784 1 112054175.48611       128.706          33.000  
G14  20824968.807 1                     -2068.100          24.500  
G17  21414487.592 1 112533929.40111       469.823          26.750  
G19  21355823.304 1 112225579.635 1      1235.149          37.750  
G28  20341517.494 1 106895510.184 1      -441.483          31.000  
J 2  35922116.469 1                      -136.800          17.750                                                                  
J 3  39453844.305 1                       555.950          23.000    39451522.413 1 154816247.50911       414.933          23.250  
R 6  23167491.612 1                     -2206.050          19.000  
R 7  21096322.653 1                       804.050          26.500  
R12  20343907.739 1 108673398.76911     -1649.618          34.000  
R13  22056490.742 1                      1812.850          21.000  
R22  21525547.807 1                      -772.900          22.000  
R23  22603396.727 1                       951.050          33.750  
> 2021  5 18  7 25 47.4406642  0 18                     
E13  24356090.993 1 127992138.587 1      -830.690          35.000    24353972.660 1  95570228.625 1      -620.815          30.250  
E21  24181334.775 1 127073874.662 1       155.082          34.000    24179214.342 1  94884429.726 1       116.005          30.250  
E26  25178785.354 1 132315411.828 1       619.283          35.250    25176667.920 1  98798650.184 1       462.669          37.000  
G 2  23498582.934 1 123485896.806 1      1129.592          38.500  
G 3  23432633.090 1                     -3089.500          23.250  
G 6  21323172.239 1 112054042.57711       146.780          29.000  
G14  20825351.573 1 109437960.38111     -2063.080          28.250  
G17  21414386.493 1                       468.700          22.250  
G19  21355586.100 1 112224345.887 1      1234.183          36.500  
G28  20341591.773 1 106895953.425 1      -442.584          31.500  
J 1  37439559.996 1                      -195.350          25.000    37437229.709 1                      -146.500          20.250  
J 2  35922130.191 1 188772067.62911      -135.381          33.000                                                                  
J 3  39453756.097 1 207330887.06411       555.033          27.250                                                                  
R 6  23167916.349 1                     -2207.050          18.750  
R12  20344237.742 1                     -1665.150          35.000  
R13  22056149.510 1                      1811.600          21.250  
R22  21525733.009 1                      -778.900          21.750  
R23  22603320.811 1                       999.750          26.500  
> 2021  5 18  7 25 48.4406642  0 19                     
E13  24356250.517 1 127992969.919 1      -831.699          33.500    24354130.685 1  95570849.375 1      -620.569          28.500  
E21  24181308.727 1 127073720.326 1       154.050          32.250    24179186.796 1  94884314.551 1       115.144          29.750  
E26  25178668.769 1 132314793.470 1       617.436          36.000    25176551.035 1  98798188.443 1       461.317          37.250  
G 2  23498375.212 1 123484768.343 1      1127.527          37.750  
G 3  23433224.015 1                     -3088.000          23.750  
G 6  21323138.097 1                       140.150          27.500  
G14  20825740.439 1 109440024.72211     -2063.306          26.250  
G19  21355351.396 1 112223112.384 1      1233.143          37.250  
G24  25646138.147 1                      -440.550          15.500  
G28  20341682.945 1 106896396.599 1      -443.080          33.250  
J 1  37439604.999 1 196746451.27211      -195.646          39.000    37437268.117 1 146911880.90911      -146.065          31.250  
J 2  35922147.313 1 188772202.520 1      -133.764          33.250                                                                  
J 3  39453644.009 1 207330332.286 1       555.169          28.500    39451312.523 1                       414.750          21.000  
R 6  23168348.385 1                     -2207.600          18.000  
R 7  21096046.510 1                       807.050          25.000  
R12  20344523.478 1                     -1650.550          31.500  
R13  22055811.978 1                      1810.550          21.250  
R21  23649300.628 1                     -1462.600          16.000  
R23  22603061.825 1 120911138.59311       992.526          27.000  
> 2021  5 18  7 25 49.4406641  0 21                     
E13  24356381.378 1 127993643.191 1      -835.088          34.000    24354257.649 1  95571352.03911      -623.492          24.000  
E15  26757193.731 1                     -1622.950          22.000                                                                  
E21  24181245.023 1 127073408.89311       149.160          31.250    24179126.389 1  94884082.001 1       111.488          31.000  
E26  25178518.725 1 132314018.68811       612.492          32.500    25176403.389 1  98797609.752 1       457.424          35.000  
G 2  23498129.534 1 123483483.055 1      1122.834          37.500  
G 3  23433821.653 1                     -3096.850          22.500  
G 6  21323081.288 1                       138.100          24.500  
G17  21414198.709 1                       468.950          24.250  
G19  21355086.831 1 112221721.236 1      1228.902          37.000  
G24  25646190.162 1                      -439.200          15.750  
G28  20341741.855 1 106896680.557 1      -444.732          33.500  
J 1  37439612.046 1 196746485.74611      -192.433          32.000    37437273.365 1 146911906.55911      -144.452          23.250  
J 2  35922152.262 1 188772175.46211      -132.014          32.500                                                                  
J 3  39453508.355 1 207329617.138 1       554.839          30.000    39451176.869 1                       417.000          21.250  
R 6  23168752.956 1                     -2207.650          18.000  
R 7  21095839.205 1 112927678.82711       806.307          28.250  
R 8  21849414.316 1                      3479.050          15.250  
R12  20344786.548 1 108678197.21311     -1656.164          36.250  
R13  22055436.489 1                      1810.400          21.750  
R22  21525975.727 1                      -769.300          23.250  
R23  22602804.454 1 120909989.26611       981.881          33.750  
> 2021  5 18  7 25 50.4406641  0 20                     
E13  24356537.551 1 127994480.358 1      -835.525          32.000    24354419.517 1                      -623.000          22.250  
E21  24181221.919 1 127073262.561 1       147.485          31.250    24179097.590 1  94883972.602 1       110.427          29.500  
E26  25178401.486 1 132313410.028 1       608.901          32.750    25176287.050 1  98797155.40011       454.272          30.000  
G 2  23497919.060 1 123482363.91011      1123.775          34.500  
G 3  23434390.640 1                     -3090.100          24.750  
G 6  21323067.778 1 112053477.41411       132.318          27.000  
G14  20826481.658 1                     -2065.650          21.500  
G17  21414106.354 1 112531887.95011       467.863          32.500  
G19  21354847.877 1 112220494.798 1      1227.519          36.500  
G24  25646269.888 1                      -440.050          15.500  
G28  20341823.679 1 106897126.51511      -443.452          34.000  
J 1  37439628.515 1                      -186.700          25.000                                                                  
J 2  35922177.425 1                      -131.000          23.750    35919842.641 1                      -103.300          13.500  
J 3  39453411.802 1 207329062.63411       557.581          30.000    39451070.423 1 154814473.82711       416.436          24.500  
R 6  23169171.747 1                     -2207.350          18.000  
R 7  21095697.683 1 112926873.02911       809.746          29.000  
R 8  21848788.629 1                      3477.550          21.500  
R12  20345101.011 1 108679855.97011     -1657.143          36.500  
R22  21526282.995 1                      -722.800          27.000  
R23  22602625.459 1 120909011.914 1       976.840          34.750  
> 2021  5 18  7 25 51.4406641  0  8                     
E13  24356697.210 1                      -836.850          26.500                                                                  
G 3  23434948.423 1                     -3087.650          24.750  
G17  21414021.382 1 112531418.72111       469.230          27.250  
G19  21354615.408 1 112219265.79311      1230.811          31.500  
G24  25646352.500 1                      -441.400          15.500  
J 3  39453323.533 1                       559.550          23.750                                                                  
R 7  21095515.879 1                       815.750          23.250  
R23  22602448.751 1 120908035.91811       974.737          29.500  
> 2021  5 18  7 25 52.4406641  0  9                     
E21  24181165.474 1                       146.150          27.250    24179042.644 1                       110.450          20.500  
G 2  23497496.268 1                      1114.250          35.750  
G 6  21323074.889 1                       127.450          22.250  
G19  21354484.445 1                      1262.650          24.500  
G28  20342000.173 1                      -443.950          26.000  
J 2  35922231.603 1                      -131.150          22.250                                                                  
R 7  21095419.991 1                       817.150          23.500  
R 8  21847481.150 1                      3479.900          26.750  
R12  20345711.004 1                     -1659.100          28.250  
> 2021  5 18  7 25 53.4406640  0 18                     
E13  24357077.534 1                      -801.550          23.500                                                                  
E15  26758408.827 1                     -1607.050          18.250                                                                  
E21  24181105.957 1 127072509.92011       143.608          36.250    24178986.424 1  94883535.62311       108.153          28.500  
E26  25178174.001 1                       594.600          23.500    25175912.966 1                       449.150          22.000  
G 2  23497246.983 1 123478865.76811      1113.696          42.250  
G 3  23436146.282 1                     -3073.450          21.000  
G 6  21323009.076 1 112053168.92911       129.074          30.750  
G14  20827647.908 1                     -2061.700          21.000  
G17  21413808.417 1                       471.100          25.500  
G19  21354129.332 1                      1227.800          34.750  
G28  20342042.585 1 106898154.55311      -445.308          33.500  
J 2  35922209.860 1                      -125.200          25.500    35919870.579 1                       -95.450          19.250  
J 3  39453072.495 1                       559.550          26.000    39450722.422 1                       417.950          18.750  
R 7  21095209.379 1 112924307.44911       812.125          36.500  
R12  20346001.045 1 108684685.11011     -1662.819          33.500  
R13  22054072.771 1                      1801.750          17.250  
R22  21526665.588 1                      -723.050          19.500  
R23  22602069.401 1                       973.800          28.250  
> 2021  5 18  7 25 54.4406640  0 15                     
E13  24357160.965 1                      -833.950          26.250                                                                  
E15  26758705.710 1 140617947.98711     -1617.252          30.500                                                                  
E21  24181077.265 1 127072367.58611       143.116          34.500    24178959.231 1  94883429.38011       107.816          28.250  
E26  25178058.070 1                       588.750          28.000    25175796.735 1  98795233.72011       458.053          26.750  
G 2  23497035.717 1 123477752.48111      1115.203          37.250  
G 3  23436712.678 1                     -3085.200          27.000  
G 6  21322954.302 1 112053041.97011       126.571          29.000  
G14  20828044.022 1                     -2065.150          22.250  
G17  21413725.463 1 112529886.74911       467.396          30.250  
G19  21353888.387 1 112215440.85911      1226.987          34.750  
G28  20342130.213 1 106898602.094 1      -446.703          30.000  
J 3  39452962.559 1 207326716.75711       559.126          30.000    39450615.784 1 154812689.24311       417.884          25.500  
R 7  21095046.979 1 112923497.73811       810.293          36.000  
R12  20346295.829 1 108686349.00111     -1663.224          27.000  
R23  22601873.725 1 120904783.75711       973.561          31.750  
> 2021  5 18  7 25 55.4406640  0 16                     
E13  24357307.802 1                      -835.300          21.000    24355185.571 1                      -624.550          18.000  
E15  26759014.735 1 140619564.78011     -1616.895          29.750                                                                  
E21  24181048.424 1 127072222.151 1       146.380          35.000    24178933.088 1  94883320.790 1       109.539          27.000  
E26  25177796.889 1                       599.400          26.000    25175680.055 1  98794780.01011       455.380          23.750  
G 2  23496836.294 1                      1119.600          30.250  
G 3  23437285.221 1                     -3073.900          23.000  
G 6  21322947.946 1                       117.150          24.500  
G14  20828464.270 1                     -2072.800          20.750  
G17  21413619.575 1 112529418.10311       468.705          28.000  
G19  21353670.677 1 112214211.76211      1229.600          30.750  
G28  20342209.597 1 106899047.339 1      -445.045          30.000  
J 1  37439794.685 1                      -185.600          27.250                                                                  
J 3  39452836.885 1 207326156.359 1       560.519          30.000    39450505.998 1                       419.500          24.000  
R 7  21094910.813 1 112922686.98111       809.596          34.250  
R12  20346622.842 1 108688010.74611     -1660.926          33.500  
R23  22601702.782 1 120903806.60011       977.841          32.750  
> 2021  5 18  7 25 56.4406639  0 17                     
E13  24357433.857 1 127999178.87911      -832.416          29.000                                                                  
E15  26759293.983 1                     -1620.500          23.750                                                                  
E21  24180990.406 1 127071916.758 1       147.565          33.500    24178874.171 1  94883092.803 1       110.720          25.500  
E26  25177650.732 1                       615.350          23.500    25175535.097 1  98794205.08311       456.853          27.750  
G 2  23496583.711 1 123475380.67511      1120.461          31.000  
G 3  23437863.362 1                     -3087.650          24.500  
G 6  21322860.848 1                       134.750          29.500  
G14  20828795.682 1                     -2064.000          24.250  
G17  21413503.097 1 112528789.639 1       470.041          30.250  
G19  21353391.412 1 112212822.83311      1232.016          33.750  
G28  20342258.605 1 106899333.57411      -445.485          30.000  
J 1  37439799.623 1 196747474.53511      -188.872          37.500    37437461.242 1                      -143.150          20.500  
J 2  35922264.591 1                      -131.300          22.500                                                                  
J 3  39452714.711 1 207325437.406 1       560.241          32.250    39450370.934 1 154811728.87111       418.385          26.750  
R 7  21094737.674 1 112921717.79711       807.583          31.250  
R12  20346904.488 1 108689510.10011     -1660.013          31.750  
R23  22601551.529 1                       978.200          26.250  
> 2021  5 18  7 25 57.4406639  0 16                     
E13  24357591.511 1 128000009.37711      -830.448          30.500                                                                  
E15  26759599.135 1                     -1616.100          25.000                                                                  
E21  24180964.887 1 127071767.779 1       149.239          33.250    24178841.756 1  94882981.393 1       111.872          23.750  
E26  25177544.269 1                       613.700          25.500    25175417.541 1  98793746.57311       459.774          33.500  
G 2  23496364.825 1 123474258.08811      1123.770          34.500  
G 3  23438487.793 1                     -3078.300          22.250  
G 6  21322838.326 1 112052270.76011       132.384          30.000  
G14  20829187.774 1 109458119.87011     -2065.390          32.750  
G17  21413421.217 1 112528319.41211       470.060          33.250  
G19  21353153.340 1 112211589.77611      1233.004          34.000  
G28  20342347.306 1 106899779.298 1      -446.341          30.750  
J 1  37439835.262 1 196747664.92311      -192.415          34.500    37437498.379 1 146912784.88611      -143.800          24.750  
J 3  39452610.946 1 207324876.92211       559.598          32.000    39450263.871 1                       420.600          26.500  
R 7  21094576.948 1 112920911.87911       802.604          29.000  
R12  20347215.336 1 108691169.09611     -1658.849          31.500  
R23  22601295.169 1                       985.250          26.000  
> 2021  5 18  7 25 58.4406639  0 17                     
E13  24357751.185 1 128000839.45311      -828.135          31.500                                                                  
E15  26759898.513 1                     -1613.900          23.250                                                                  
E21  24180937.791 1 127071618.237 1       151.717          34.000    24178814.361 1  94882869.766 1       113.505          28.250  
E26  25177424.238 1 132308257.23711       619.522          31.250    25175300.508 1  98793286.766 1       461.777          34.500  
G 2  23496152.758 1 123473133.565 1      1127.139          38.500  
G 3  23439064.779 1                     -3082.650          21.750  
G 6  21322837.313 1                       138.700          25.500  
G14  20829582.786 1 109460187.002 1     -2066.545          33.750  
G17  21413327.867 1 112527849.861 1       471.229          32.000  
G19  21352915.790 1 112210356.296 1      1236.044          37.000  
G28  20342436.830 1 106900226.764 1      -446.380          31.000  
J 3  39452498.709 1 207324318.479 1       559.800          29.500    39450158.529 1 154810895.52811       418.283          25.000  
R12  20347517.113 1 108692828.363 1     -1657.499          33.500  
R13  22052333.393 1                      1799.400          18.000  
R21  23651096.592 1                     -1579.750          16.250  
R22  21527282.278 1                      -769.350          19.000  
R23  22601154.452 1                       991.750          22.750  
> 2021  5 18  7 25 59.4406638  0 17                     
E13  24357877.768 1 128001506.952 1      -825.203          32.250    24355758.535 1                      -622.400          18.500  
E15  26760194.179 1                     -1613.100          23.750                                                                  
E21  24180875.204 1 127071306.843 1       152.771          34.500    24178757.170 1  94882637.113 1       114.662          29.750  
E26  25177273.212 1 132307478.126 1       621.414          34.500    25175152.180 1  98792704.813 1       464.578          33.500  
G 2  23495909.696 1 123471846.620 1      1129.060          36.500  
G 3  23439605.974 1                     -3082.850          22.000  
G 6  21322747.745 1 112051795.56911       141.889          28.000  
G14  20829948.003 1 109462095.470 1     -2068.234          35.500  
G17  21413218.213 1 112527219.08711       472.465          30.250  
G19  21352654.441 1 112208960.206 1      1238.505          38.750  
G28  20342492.961 1 106900514.248 1      -446.572          32.000  
J 2  35922314.875 1                      -148.550          19.500                                                                  
J 3  39452352.480 1 207323599.51811       560.769          28.750    39450023.992 1                       419.150          22.000  
R 7  21094510.650 1                       887.000          20.500  
R12  20347803.784 1 108694323.864 1     -1656.760          35.500  
R21  23651332.299 1 126563056.11611     -1581.010          29.750  
R23  22600885.009 1                       998.150          26.250  
> 2021  5 18  7 26  0.4406638  0 16                     
E13  24358034.981 1 128002331.896 1      -823.350          34.750    24355909.752 1                      -614.900          26.000  
E15  26760505.785 1                     -1511.000          23.500                                                                  
E21  24180845.347 1 127071153.64211       154.789          31.250    24178727.613 1  94882522.854 1       115.562          30.000  
E26  25177163.910 1 132306855.82311       624.346          31.000    25175034.184 1  98792240.08111       467.281          30.750  
G 2  23495696.365 1 123470716.70911      1131.176          35.500  
G 3  23440199.985 1 123179081.44611     -2983.069          27.500  
G 6  21322720.285 1 112051653.03511       144.798          31.750  
G14  20830338.754 1 109464166.578 1     -2071.547          36.500  
G17  21413123.301 1 112526747.76111       473.071          29.750  
G19  21352418.026 1 112207721.292 1      1240.756          39.000  
G28  20342572.228 1 106900963.001 1      -448.041          31.250  
J 2  35922329.986 1 188773117.40511      -140.027          35.000    35919996.102 1                      -102.750          17.500  
J 3  39452248.574 1 207323040.71111       560.491          28.250                                                                  
R12  20348108.195 1 108695981.543 1     -1656.928          36.750  
R21  23651696.968 1                     -1463.700          24.750  
R23  22600686.967 1 120898434.75611      1003.862          30.000  
> 2021  5 18  7 26  1.4406638  0 17                     
E13  24358194.779 1 128003152.22611      -817.733          31.500    24356065.952 1                      -608.800          25.750  
E21  24180819.573 1                       157.050          26.500    24178698.241 1  94882406.36511       118.265          31.500  
E26  25177044.301 1 132306224.08811       634.724          30.750    25174913.676 1  98791770.70711       471.319          28.750  
G 2  23495482.022 1 123469581.59511      1139.269          36.250  
G 3  23440794.781 1                     -3086.050          25.000  
G 6  21322693.313 1 112051505.85911       149.656          29.000  
G14  20830728.493 1 109466237.36111     -2072.776          33.250  
G17  21413030.973 1 112526271.46011       478.770          29.000  
G19  21352195.289 1 112206476.17611      1249.265          34.750  
G28  20342671.468 1 106901410.22211      -448.257          30.750  
J 1  37439979.547 1                      -141.650          19.000                                                                  
J 2  35922358.774 1 188773258.60211      -143.800          33.500    35920017.096 1 140957861.96911      -107.333          28.000  
J 3  39452156.546 1                       564.850          24.500                                                                  
R 7  21094058.393 1                       886.100          20.750  
R12  20348419.688 1 108697637.19311     -1654.735          37.000  
R21  23651863.062 1                     -1577.800          25.000  
R23  22600515.794 1 120897430.58511      1006.032          30.500  
> 2021  5 18  7 26  2.4406637  0 20                     
E13  24358326.037 1 128003810.45911      -813.833          31.750    24356193.313 1  95578933.33611      -608.108          25.000  
E15  26761093.335 1                     -1609.000          21.250                                                                  
E21  24180771.555 1                       153.500          23.750    24178637.932 1  94882172.407 1       115.963          31.000  
E26  25176894.353 1 132305438.22111       627.706          39.000    25174764.628 1  98791183.652 1       469.189          34.250  
G 2  23495231.944 1 123468289.856 1      1131.812          42.000  
G 3  23441353.543 1 123185144.29511     -3085.236          26.000  
G 6  21322630.605 1 112051198.78611       149.404          30.000  
G14  20831104.381 1 109468159.28011     -2081.513          29.500  
G17  21412903.210 1 112525635.20611       481.080          26.250  
G19  21351913.433 1 112205070.90411      1249.284          32.500  
G24  25647144.306 1                      -379.650          14.750  
G28  20342720.582 1 106901704.444 1      -452.668          33.000  
J 1  37440020.568 1                      -153.950          23.500                                                                  
J 2  35922352.428 1 188773249.897 1      -151.016          36.000    35920015.246 1                      -111.750          29.750  
J 3  39452011.096 1 207321717.01711       563.042          28.500    39449670.616 1                       426.600          20.000  
R 7  21093768.143 1 112916591.66811       787.587          28.250  
R12  20348707.138 1 108699136.817 1     -1661.204          37.500  
R13  22050904.131 1                      1817.500          19.000  
R22  21527728.518 1                      -744.150          19.000  
R23  22600295.096 1 120896264.97311      1006.271          33.000  
> 2021  5 18  7 26  3.4406637  0 18                     
E13  24358465.582 1 128004622.116 1      -812.842          35.500    24356348.747 1  95579538.87011      -606.604          24.000  
E21  24180738.120 1                       157.650          23.000    24178608.694 1  94882055.212 1       115.594          30.500  
E26  25176763.786 1 132304808.167 1       628.373          37.500    25174643.953 1  98790713.267 1       469.559          34.000  
G 2  23495015.935 1 123467156.688 1      1131.647          40.750  
G 3  23441916.096 1                     -3078.800          24.500  
G 6  21322612.159 1 112051048.91311       148.539          31.000  
G14  20831503.247 1 109470238.24611     -2081.394          27.500  
G17  21412817.012 1 112525152.49111       480.301          33.750  
G19  21351676.439 1 112203818.014 1      1251.852          35.000  
G28  20342807.364 1 106902155.658 1      -453.337          32.500  
J 2  35922383.448 1 188773399.943 1      -152.890          36.000    35920043.868 1 140957966.57211      -114.146          31.750  
J 3  39451900.614 1 207321151.568 1       564.049          32.250                                                                  
R 7  21093633.378 1 112915800.29011       789.724          31.250  
R12  20349016.965 1 108700797.154 1     -1662.579          38.750  
R13  22050635.959 1                      1824.000          23.500  
R21  23652486.721 1                     -1568.800          21.500  
R22  21527895.345 1                      -754.300          23.000  
R23  22600128.553 1 120895255.75311      1007.435          31.250  
> 2021  5 18  7 26  4.4406637  0 19                     
E13  24358621.409 1 128005433.456 1      -811.404          34.750    24356502.776 1  95580144.736 1      -605.641          24.000  
E15  26761716.681 1                     -1600.950          19.750                                                                  
E21  24180700.881 1                       155.600          25.750    24178578.350 1  94881938.556 1       116.628          31.500  
E26  25176642.305 1 132304177.717 1       631.003          36.000    25174523.672 1  98790242.537 1       471.514          32.750  
G 2  23494798.221 1 123466023.783 1      1133.580          38.500  
G 3  23442537.800 1                     -3076.950          24.500  
G 6  21322591.709 1 112050899.29411       149.790          28.500  
G14  20831882.719 1                     -2082.950          24.500  
G17  21412723.112 1 112524671.305 1       480.477          34.750  
G19  21351443.435 1 112202564.857 1      1253.247          33.000  
G28  20342887.943 1 106902609.058 1      -454.368          31.750  
J 2  35922403.769 1 188773553.497 1      -155.186          36.500    35920071.683 1 140958081.258 1      -115.771          32.000  
J 3  39451801.618 1 207320587.094 1       563.573          30.750                                                                  
R 7  21093481.618 1 112915011.593 1       787.265          33.000  
R 8  21839564.016 1                      3473.850          13.250  
R12  20349324.787 1 108702459.193 1     -1662.233          39.750  
R13  22050266.849 1                      1823.150          23.000  
R22  21528043.977 1                      -754.050          22.500  
R23  22599909.040 1 120894246.444 1      1010.357          31.000  
> 2021  5 18  7 26  5.4406636  0 16                     
E13  24358746.389 1 128006088.472 1      -810.908          32.750    24356626.257 1  95580634.054 1      -605.615          28.250  
E21  24180636.692 1                       156.400          25.750    24178518.958 1  94881705.13111       117.197          31.000  
E26  25176488.778 1 132303389.38711       629.328          32.250    25174374.042 1  98789653.82211       472.005          29.750  
G 2  23494560.153 1                      1143.150          21.250  
G 6  21322520.625 1 112050593.19211       151.506          27.750  
G14  20832265.221 1 109474291.71211     -2086.259          26.500  
G17  21412600.164 1 112524035.268 1       479.401          30.750  
G19  21351167.593 1 112201155.25511      1253.839          29.500  
G28  20342958.062 1 106902908.23811      -455.637          29.500  
J 2  35922412.430 1 188773553.60111      -156.809          33.750    35920072.550 1 140958081.20911      -120.779          29.250  
J 3  39451658.883 1 207319868.209 1       561.952          29.750                                                                  
R 7  21093311.003 1 112914067.276 1       783.517          34.000  
R12  20349612.255 1 108703962.23611     -1663.807          37.500  
R13  22049839.912 1                      1820.650          25.000  
R21  23653028.947 1                     -1574.550          21.500  
R23  22599700.951 1 120893075.56211      1012.938          33.000  
> 2021  5 18  7 26  6.4406636  0  7                     
E13  24358904.619 1                      -809.450          27.500    24356780.289 1  95581239.92011      -605.986          24.750  
G 3  23443628.651 1                     -3080.050          21.000  
G17  21412500.572 1 112523556.13111       477.201          26.500  
G19  21350918.404 1                      1257.050          23.250  
J 3  39451555.994 1 207319305.95311       561.460          28.000                                                                  
R 7  21093172.438 1 112913284.91811       782.180          30.000  
R21  23653334.375 1 126573769.34911     -1579.819          27.000  
> 2021  5 18  7 26  7.4406636  0  6                     
E26  25176250.276 1                       640.850          26.500    25174131.942 1                       472.100          23.250  
G 2  23494114.194 1                      1141.100          28.750  
G 3  23444187.658 1                     -3077.650          21.250  
R12  20350226.063 1                     -1657.900          30.250  
R21  23653634.660 1                     -1584.400          26.000  
R23  22599323.045 1                      1019.100          22.250  
> 2021  5 18  7 26  8.4406636  0 15                     
E13  24359235.001 1                      -814.550          27.000    24357088.487 1                      -609.100          22.500  
E21  24180548.503 1                       156.250          22.000    24178427.472 1                       117.850          26.750  
E26  25176132.275 1 132301715.23411       638.657          32.750    25174010.943 1  98788225.88511       477.535          31.500  
G 2  23493903.258 1 123461294.29311      1142.524          36.250  
G 6  21322457.918 1                       155.250          23.750  
G14  20833452.050 1                     -2089.400          20.000  
G17  21412327.902 1                       476.300          24.500  
G19  21350506.201 1                      1249.800          27.500  
G28  20343208.638 1                      -455.700          26.750  
J 1  37440198.638 1                      -216.500          23.750                                                                  
J 2  35922505.316 1                      -166.950          24.750                                                                  
J 3  39451335.657 1                       558.800          24.250                                                                  
R 7  21092872.057 1                       775.650          25.500  
R12  20350536.765 1 108708913.97911     -1658.082          40.250  
R23  22599160.675 1 120890270.71011      1017.954          30.000  
> 2021  5 18  7 26  9.4406635  0 16                     
E13  24359339.947 1 128009195.52111      -812.123          33.000    24357213.219 1  95582936.06411      -606.162          28.250  
E15  26763174.807 1                     -1614.650          18.250                                                                  
E21  24180489.163 1                       160.500          26.750    24178367.232 1  94881105.47511       120.128          32.250  
E26  25175982.997 1 132300916.82311       641.333          31.750    25173857.168 1  98787629.623 1       478.809          31.750  
G 2  23493652.650 1 123459992.376 1      1144.264          37.500  
G 6  21322360.804 1 112049762.14911       155.592          30.500  
G17  21412204.107 1 112521891.78511       474.892          28.000  
G19  21350205.527 1 112196087.09411      1251.667          30.000  
G28  20343258.422 1 106904543.97411      -454.352          30.750  
J 1  37440188.764 1 196749519.30211      -215.264          33.500    37437882.460 1                      -162.050          17.000  
J 2  35922502.636 1 188774025.13111      -173.078          26.750                                                                  
J 3  39451211.262 1 207317513.80111       559.709          31.500    39448861.788 1                       420.900          17.500  
R 7  21092684.106 1 112910788.96911       776.378          35.000  
R12  20350817.689 1 108710409.846 1     -1656.165          37.500  
R13  22048507.303 1                      1826.100          19.250  
R23  22598949.640 1                      1012.650          26.000  
> 2021  5 18  7 26 10.4406635  0 17                     
E13  24359494.122 1 128010007.009 1      -811.133          35.000    24357367.695 1  95583541.86411      -605.676          28.000  
E21  24180470.958 1                       163.150          24.750    24178337.035 1  94880984.622 1       121.397          32.750  
E26  25175855.067 1 132300011.442 1       641.796          35.500    25173736.734 1  98787150.482 1       480.019          34.000  
G 2  23493441.378 1 123458847.036 1      1146.276          39.500  
G 3  23446066.975 1                     -2997.200          19.000  
G 6  21322330.007 1 112049605.82911       156.676          30.750  
G17  21412113.651 1 112521415.20611       476.829          30.750  
G19  21349967.574 1 112194833.03711      1254.743          32.250  
G28  20343349.042 1 106904997.290 1      -452.621          30.500  
J 1  37440226.620 1 196749733.25111      -212.079          29.500    37437893.035 1                      -162.150          22.500  
J 2  35922509.014 1                      -158.300          23.000                                                                  
J 3  39451095.025 1 207316953.280 1       560.912          30.500                                                                  
R 7  21092550.780 1 112910012.141 1       777.213          35.250  
R12  20351125.958 1 108712064.933 1     -1654.423          38.250  
R13  22048083.778 1                      1825.100          21.500  
R22  21528887.910 1                      -751.050          18.250  
R23  22598806.421 1                      1024.300          26.000  
> 2021  5 18  7 26 11.4406635  0 19                     
E13  24359655.451 1 128010819.836 1      -812.889          35.000    24357522.728 1  95584149.010 1      -607.106          29.250  
E21  24180443.717 1                       166.000          24.000    24178306.197 1  94880864.417 1       120.583          32.250  
E26  25175735.790 1 132299370.210 1       641.197          36.500    25173614.759 1  98786671.61711       479.400          33.750  
G 2  23493216.874 1 123457701.858 1      1145.366          39.000  
G 3  23446563.472 1                     -2992.300          23.000  
G 6  21322316.857 1 112049450.31711       155.446          31.000  
G14  20834602.195 1                     -2087.150          19.000  
G17  21412032.148 1 112520940.003 1       474.921          33.000  
G19  21349710.992 1                      1250.600          33.250  
G28  20343439.020 1 106905451.01511      -453.516          30.000  
J 1  37440259.337 1                      -217.300          21.500                                                                  
J 2  35922548.027 1 188774263.58611      -151.958          28.500    35920216.841 1                      -114.850          16.500  
J 3  39450978.446 1 207316393.452 1       559.928          30.000                                                                  
R 7  21092398.226 1 112909236.177 1       775.740          34.000  
R12  20351447.975 1 108713719.74011     -1655.571          37.000  
R13  22047777.431 1                      1824.000          23.000  
R21  23654897.045 1                     -1461.450          20.500  
R22  21528970.094 1                      -755.400          23.250  
R23  22598630.783 1 120887436.25911      1023.018          27.250  
> 2021  5 18  7 26 12.4406634  0 16                     
E13  24359770.608 1 128011476.21011      -815.785          34.000    24357646.279 1  95584640.27211      -610.202          28.500  
E21  24180362.809 1                       157.400          26.000    24178245.975 1  94880627.000 1       118.408          33.000  
E26  25175581.134 1 132298571.947 1       639.416          37.750    25173463.100 1  98786075.559 1       477.515          34.500  
G 2  23492971.980 1 123456399.142 1      1143.731          40.500  
G 3  23447129.216 1                     -3090.850          23.250  
G 6  21322270.126 1 112049137.92411       153.580          30.750  
G14  20834992.861 1                     -2085.950          22.750  
G17  21411904.773 1 112520307.75611       473.833          30.250  
G19  21349455.905 1 112192147.64311      1248.171          34.750  
G28  20343493.619 1 106905746.95411      -454.614          31.500  
J 2  35922561.254 1 188774255.10911      -149.316          33.000    35920215.978 1 140958642.70111      -110.932          27.000  
J 3  39450877.152 1 207315675.45211       559.600          27.000    39448512.090 1                       415.350          18.000  
R 7  21092234.276 1 112908300.59911       774.485          30.500  
R12  20351723.821 1 108715215.764 1     -1657.046          38.750  
R22  21529087.349 1                      -749.800          23.000  
R23  22598357.109 1 120885972.08511      1022.794          29.750  
> 2021  5 18  7 26 13.4406634  0 16                     
E13  24359923.576 1 128012292.354 1      -818.922          35.750    24357802.544 1  95585249.580 1      -611.232          29.000  
E21  24180337.401 1                       154.250          27.000    24178215.170 1  94880509.023 1       116.018          33.000  
E26  25175458.293 1 132297933.68611       635.024          36.000    25173339.660 1  98785598.91311       474.790          32.000  
G 2  23492758.902 1 123455256.63011      1140.114          38.500  
G 4  24942009.307 1                      1050.400          16.500  
G 6  21322239.021 1 112048987.58511       148.462          28.750  
G17  21411814.909 1 112519835.41911       469.660          28.750  
G19  21349213.747 1 112190899.587 1      1245.192          36.500  
G28  20343584.230 1 106906202.529 1      -457.734          32.250  
J 2  35922583.213 1 188774411.22511      -164.895          27.000                                                                  
J 3  39450736.923 1 207315117.23811       556.389          27.250                                                                  
R 7  21092083.854 1 112907526.26811       772.189          30.000  
R12  20352028.784 1 108716873.618 1     -1660.456          38.000  
R13  22047077.826 1                      1819.900          21.000  
R22  21529231.024 1                      -762.550          25.000  
R23  22598130.540 1 120884952.30811      1014.895          34.000  
> 2021  5 18  7 26 14.4406634  0 16                     
E13  24360082.167 1 128013113.69411      -819.320          34.500    24357958.437 1  95585863.084 1      -612.059          28.000  
E15  26764711.477 1                     -1614.950          18.500                                                                  
E21  24180308.921 1 127068417.96411       153.384          30.250    24178187.290 1  94880395.102 1       114.796          33.500  
E26  25175338.976 1 132297301.15911       633.426          37.000    25173220.643 1  98785126.594 1       473.011          34.250  
G 2  23492536.456 1 123454119.208 1      1137.677          42.250  
G 3  23448322.465 1                     -3084.900          20.250  
G 6  21322210.542 1 112048839.10611       148.972          28.750  
G17  21411744.758 1 112519367.49211       469.516          27.500  
G19  21348976.912 1 112189655.59611      1246.239          35.750  
G28  20343666.374 1 106906662.548 1      -458.145          32.000  
J 3  39450637.993 1 207314562.90211       556.119          26.250                                                                  
R 7  21091939.955 1 112906756.44211       773.495          30.500  
R12  20352334.273 1 108718536.886 1     -1662.311          37.750  
R13  22046727.369 1                      1811.100          24.000  
R22  21529404.604 1                      -761.750          22.250  
R23  22597932.678 1 120883939.54511      1012.407          33.500  
> 2021  5 18  7 26 15.4406633  0 16                     
E13  24360209.833 1 128013775.660 1      -820.252          37.500    24358085.804 1  95586357.136 1      -612.336          30.500  
E15  26764956.362 1                     -1540.200          25.250    26762827.536 1                     -1196.950          13.500  
E21  24180245.920 1 127068107.57311       151.069          31.000    24178127.586 1  94880163.213 1       113.258          34.250  
E26  25175186.637 1 132296511.819 1       629.474          35.000    25173070.402 1  98784537.142 1       470.051          34.500  
G 2  23492290.881 1 123452825.19611      1134.931          40.000  
G 3  23448884.231 1 123224717.39511     -3091.024          26.500  
G 6  21322136.448 1 112048534.23111       144.862          35.000  
G17  21411626.295 1 112518738.24311       473.154          26.000  
G19  21348706.454 1 112188252.42011      1244.181          37.750  
G28  20343723.589 1 106906962.626 1      -457.809          33.500  
J 3  39450536.618 1                       563.300          24.250                                                                  
R12  20352615.733 1 108720039.89911     -1665.103          38.250  
R13  22046357.680 1                      1806.700          25.000  
R21  23655866.640 1                     -1581.350          19.500  
R22  21529507.088 1                      -753.050          25.000  
R23  22597713.784 1 120882770.22011      1007.519          33.750  
> 2021  5 18  7 26 16.4406633  0 15                     
E13  24360366.127 1 128014595.94711      -825.647          36.500    24358242.397 1  95586969.76711      -614.753          27.750  
E15  26765276.342 1                     -1612.600          24.500                                                                  
E21  24180218.141 1                       144.500          27.750    24178099.508 1                       111.050          28.250  
E26  25175073.717 1                       627.100          25.250    25172951.186 1                       465.950          23.500  
G 3  23449481.519 1                     -2998.850          28.250  
G 6  21322115.864 1 112048389.95211       149.304          31.250  
G14  20836530.328 1                     -2081.750          20.250  
G17  21411528.065 1 112518265.20011       471.811          28.000  
G19  21348461.325 1 112187008.94211      1241.635          34.750  
G28  20343806.733 1 106907421.23411      -463.428          27.750  
J 1  37440455.570 1                      -207.250          17.250                                                                  
J 3  39450435.090 1                       564.650          23.250    39448061.333 1                       413.350          18.000  
R 7  21091942.410 1 112906818.50311       868.866          29.250  
R12  20352939.611 1                     -1668.750          29.500  
R21  23656242.682 1                     -1470.450          23.250  
> 2021  5 18  7 26 17.4406633  0 15                     
E13  24360525.788 1                      -818.600          35.000    24358398.761 1                      -612.300          29.250  
E15  26765581.703 1                     -1596.350          22.000                                                                  
E21  24180193.130 1                       146.600          29.000    24178071.799 1  94879946.51711       106.336          27.500  
E26  25174970.160 1                       580.100          22.000                                                                  
G 3  23450024.615 1                     -3082.950          27.250  
G 6  21322079.461 1                       137.850          28.750  
G14  20836925.026 1 109498779.26311     -2080.169          30.500  
G17  21411453.289 1 112517792.91711       474.691          32.000  
G19  21348271.728 1                      1256.050          37.000  
G28  20343890.847 1 106907881.51211      -459.053          30.500  
J 2  35922652.095 1                      -145.450          21.750                                                                  
J 3  39450303.952 1                       568.850          25.250                                                                  
R12  20353271.053 1                     -1674.100          23.000  
R22  21529811.051 1                      -739.750          21.500  
R23  22597434.951 1                      1019.700          20.500  
> 2021  5 18  7 26 18.4406632  0 13                     
E21  24180135.840 1                       145.700          29.500    24178014.209 1                       111.600          28.000  
E26  25174802.847 1 132294481.80011       625.092          33.000    25172683.314 1                       467.050          30.500  
G 2  23491667.857 1                      1132.550          21.500  
G 3  23450588.495 1                     -3089.550          24.750  
G 6  21322030.266 1 112048025.11111       136.606          32.500  
G17  21411340.837 1 112517156.77611       482.318          29.500  
G19  21348007.582 1                      1285.500          21.000  
G28  20343971.462 1                      -455.350          21.750  
J 3  39450163.020 1                       560.450          21.250                                                                  
R 7  21091593.294 1                       864.350          31.000  
R12  20353540.237 1                     -1668.900          34.500  
R21  23656724.291 1                     -1567.800          21.500  
R23  22597111.445 1 120879308.08011      1002.169          28.000  
> 2021  5 18  7 26 19.4406632  0 17                     
E13  24360802.863 1                      -810.900          31.000    24358680.033 1                      -605.650          26.000  
E15  26766171.161 1                     -1608.950          22.750                                                                  
E21  24180104.158 1                       153.500          25.750    24177985.225 1  94879606.33311       114.154          30.500  
E26  25174681.227 1 132293852.509 1       630.418          37.000    25172564.392 1  98782549.01811       471.650          35.000  
G 2  23491433.815 1 123448317.34311      1138.114          26.750  
G 6  21322008.776 1 112047878.87311       149.063          31.500  
G17  21411221.915 1 112516674.10511       481.296          29.500  
G19  21347724.674 1 112183049.50311      1250.573          40.500  
G28  20344040.810 1 106908655.91111      -457.860          32.000  
J 3  39450045.897 1                       572.300          25.500                                                                  
R 7  21091460.582 1 112904239.52211       867.051          28.000  
R 8  21829799.040 1                      3459.100          20.000  
R12  20353853.616 1 108726631.86211     -1668.514          37.500  
R13  22045036.535 1                      1814.250          19.250  
R21  23657072.146 1                     -1572.550          24.000  
R22  21529987.396 1                      -748.050          21.500  
R23  22596935.263 1 120878299.92211      1013.452          29.500  
> 2021  5 18  7 26 20.4406632  0 15                     
E13  24360953.633 1 128017675.03911      -812.278          34.500    24358832.901 1  95589292.16411      -606.291          25.750  
E21  24180081.648 1                       155.450          22.000    24177956.420 1  94879492.988 1       113.186          29.750  
E26  25174560.085 1 132293220.653 1       631.600          38.000    25172444.750 1  98782077.340 1       471.080          36.000  
G 2  23491183.762 1                      1135.000          22.000  
G 3  23451790.734 1                     -3085.250          23.000  
G 6  21321980.870 1 112047730.19211       148.233          32.250  
G17  21411133.751 1 112516193.63211       478.278          30.000  
G19  21347491.110 1 112181798.28811      1250.640          37.750  
G28  20344133.420 1 106909114.822 1      -461.010          32.000  
J 3  39449958.333 1 207310929.47811       562.115          26.250                                                                  
R 7  21090999.775 1                       775.650          29.500  
R12  20354158.780 1 108728300.525 1     -1670.016          39.000  
R13  22044677.658 1                      1808.600          24.000  
R22  21530166.047 1 114929487.56511      -751.449          27.500  
R23  22596749.966 1 120877285.93211      1012.028          34.500  
> 2021  5 18  7 26 21.4406631  0 17                     
E13  24361087.062 1 128018332.286 1      -814.018          35.750    24358959.135 1  95589782.940 1      -607.515          25.000  
E15  26766772.840 1                     -1610.300          21.000                                                                  
E21  24180014.516 1                       143.200          27.500    24177898.580 1  94879264.873 1       111.004          30.000  
E26  25174413.208 1 132292433.829 1       631.069          36.500    25172294.874 1  98781489.781 1       470.445          34.750  
G 2  23490956.241 1                      1136.450          23.750  
G 3  23452337.876 1                     -3085.700          25.250  
G 6  21321923.930 1 112047426.13811       148.333          30.750  
G17  21411017.152 1 112515561.192 1       475.756          35.000  
G19  21347237.506 1 112180391.85611      1250.297          39.250  
G28  20344184.405 1 106909421.771 1      -464.124          33.500  
J 1  37440571.823 1                      -213.500          21.000    37438208.259 1                      -159.100          18.750  
J 3  39449811.755 1 207310211.08611       562.276          26.750                                                                  
R 7  21090832.812 1 112900878.67611       772.205          30.250  
R12  20354441.205 1 108729813.632 1     -1672.317          40.250  
R13  22044254.971 1                      1808.650          25.250  
R22  21530269.496 1                      -753.400          26.250  
R23  22596535.635 1 120876114.69511      1011.729          35.000  
> 2021  5 18  7 26 22.4406631  0 18                     
E13  24361235.483 1 128019144.355 1      -812.646          35.750    24359113.253 1  95590389.331 1      -606.805          25.250  
E15  26767049.573 1                     -1609.100          23.750                                                                  
E21  24179991.756 1                       149.400          26.250    24177868.626 1  94879152.451 1       111.596          31.000  
E26  25174290.317 1 132291801.541 1       631.557          36.250    25172174.682 1  98781017.475 1       471.834          34.750  
G 2  23490738.916 1                      1136.000          23.000  
G 3  23452923.095 1 123245941.76811     -3092.114          26.250  
G 6  21321905.368 1 112047274.94411       150.558          33.000  
G17  21410920.644 1 112515084.20311       476.498          34.750  
G19  21346983.007 1 112179140.525 1      1250.316          35.750  
G28  20344277.665 1 106909884.585 1      -463.514          33.250  
J 1  37440609.621 1                      -218.850          22.000                                                                  
J 3  39449695.160 1 207309647.70811       564.084          31.000                                                                  
R 7  21090674.246 1                       768.750          26.250  
R12  20354749.116 1 108731484.592 1     -1671.654          39.750  
R13  22043921.626 1 117713311.47311      1810.911          26.500  
R21  23657969.744 1                     -1546.750          19.750  
R22  21530396.333 1 114930717.15411      -751.908          29.000  
R23  22596367.176 1 120875100.06111      1017.543          34.500  
> 2021  5 18  7 26 23.4406631  0 17                     
E13  24361392.146 1 128019955.94711      -809.442          34.250    24359270.515 1  95590995.411 1      -604.176          24.500  
E15  26767381.015 1                     -1617.600          22.750                                                                  
E21  24179957.451 1                       150.250          27.500    24177840.017 1  94879040.049 1       113.536          31.500  
E26  25174170.272 1 132291169.204 1       633.333          36.250    25172053.437 1  98780545.339 1       473.302          33.250  
G 2  23490571.203 1                      1133.350          23.750  
G 3  23453516.556 1 123249034.38011     -3089.893          28.750  
G 6  21321867.166 1 112047125.47511       149.170          31.000  
G17  21410825.781 1 112514606.949 1       479.468          38.750  
G19  21346756.235 1 112177888.96711      1253.585          34.000  
G28  20344362.378 1 106910347.593 1      -460.963          32.250  
J 2  35922902.679 1                      -121.250          16.000                                                                  
J 3  39449591.004 1 207309083.121 1       567.186          33.500                                                                  
R 7  21090587.777 1                       773.300          22.500  
R12  20355073.363 1 108733156.326 1     -1670.393          37.750  
R13  22043614.211 1                      1807.750          24.250  
R22  21530545.800 1                      -746.200          26.500  
R23  22596172.782 1 120874083.03011      1015.698          32.250  
> 2021  5 18  7 26 24.4406631  0 18                     
E13  24361554.214 1 128020762.38011      -805.113          34.500    24359419.691 1  95591597.551 1      -601.247          25.250  
E15  26767675.890 1                     -1603.100          23.000                                                                  
E21  24179927.051 1 127066505.69811       155.214          29.000    24177809.917 1  94878924.742 1       116.515          30.250  
E26  25174050.534 1 132290533.816 1       635.694          37.250    25171933.100 1  98780070.879 1       474.510          33.250  
G 2  23490324.353 1 123442487.05111      1137.833          27.250  
G 3  23454095.934 1 123252122.55211     -3087.319          28.500  
G 6  21321822.976 1 112046974.36111       150.964          27.000  
G17  21410731.825 1 112514124.764 1       483.811          35.750  
G19  21346544.461 1 112176631.282 1      1261.937          37.750  
G28  20344456.093 1 106910806.616 1      -457.482          33.250  
J 2  35922908.555 1                      -110.650          24.500                                                                  
J 3  39449481.159 1 207308512.701 1       572.148          33.250    39447132.885 1                       428.950          17.500  
R 7  21090650.613 1                       870.600          25.500  
R12  20355381.129 1 108734825.146 1     -1668.334          38.000  
R13  22043301.706 1 117710000.54411      1814.376          26.500  
R21  23658526.809 1                     -1571.900          20.500  
R22  21530662.899 1 114932140.63911      -744.745          29.500  
R23  22595959.509 1 120873067.56411      1015.671          30.250  
> 2021  5 18  7 26 25.4406630  0 18                     
E13  24361676.371 1 128021408.32811      -804.224          34.000    24359544.547 1  95592080.010 1      -600.996          27.250  
E15  26767940.749 1                     -1528.500          27.250    26765742.370 1                     -1120.300          16.250  
E21  24179868.734 1                       153.900          26.500    24177750.700 1  94878690.363 1       115.106          27.750  
E26  25173896.582 1 132289739.30811       635.223          34.250    25171781.547 1  98779477.576 1       473.836          32.250  
G 2  23490073.569 1 123441191.012 1      1136.423          30.250  
G 3  23454660.285 1 123255049.90211     -3083.683          31.000  
G 6  21321761.960 1                       152.900          24.250  
G17  21410611.151 1 112513481.301 1       484.529          34.500  
G19  21346263.098 1 112175209.70911      1261.750          36.500  
G28  20344518.591 1 106911105.257 1      -458.110          31.000  
J 2  35922923.386 1                      -114.000          25.500                                                                  
J 3  39449336.201 1 207307781.194 1       572.619          31.750    39446999.919 1 154798500.40911       427.766          24.000  
R 7  21090447.495 1                       868.500          25.000  
R12  20355651.684 1 108736332.410 1     -1669.513          37.750  
R13  22042889.334 1                      1810.750          24.250  
R21  23658806.058 1                     -1476.300          26.000  
R22  21530809.639 1 114932723.12511      -743.134          29.250  
R23  22595748.297 1 120871889.87311      1016.000          27.000  
> 2021  5 18  7 26 26.4406630  0 17                     
E13  24361838.396 1 128022215.86911      -806.399          35.500    24359698.777 1  95592682.967 1      -603.045          29.750  
E15  26768259.565 1                     -1606.650          23.500                                                                  
E26  25173789.394 1                       633.450          24.000    25171661.168 1                       476.250          22.000  
G 2  23489853.359 1 123440057.29111      1133.559          31.500  
G 3  23455240.521 1 123258136.12111     -3087.765          27.750  
G 6  21321781.883 1                       141.150          24.500  
G17  21410518.053 1 112512998.79511       482.419          33.750  
G19  21346018.005 1 112173952.46611      1256.854          37.000  
G28  20344592.777 1 106911565.967 1      -460.879          32.500  
J 3  39449235.908 1 207307210.674 1       571.130          32.500                                                                  
R 7  21090298.036 1                       860.200          24.500  
R 8  21825407.131 1                      3493.150          16.500  
R12  20355975.297 1 108738004.861 1     -1672.691          38.000  
R13  22042507.835 1                      1804.500          24.500  
R21  23659021.746 1                     -1572.850          24.750  
R22  21530912.006 1 114933468.03711      -743.284          29.000  
R23  22595553.869 1 120870875.60711      1012.670          27.500  
